{"Massachusetts": {"html_attributions": [], "next_page_token": "CqQCEQEAAIK_r3EjaaxIk96XwPv4o4SnxscgN5WDbxQVNquNp18Aue8YR5FwO_UcALZx_kbUFXjl49hus5Z1v2Xs7ltLfkes-bBGWwJ99IgNzFRd_K6ai8JMm4Z-mgiDP2dQpTccaNfsZ0Ix9X6zX1AIZNSkSgy9JSzJ8qRCnNTzBRXSEfktBAZnFPHgeYB4dRNtx5eyiZ92jDPdDFg4smLRuYL97U4T48Ad9bcID_95vAe5dH-OfmGlMXuS3OvQqbVqEn7elTqRvKJVMlUwAqzEhKTIcURPYGPHCRvKElIJkB93lk0MfOQDi5RdZ7MO-GY5TyrFNkUe9BEI9WRRd6TQbRDjM0kfBUG5miwLpNwJwJM0RRv50eG5l63c5sOFBB3Qvsw5LhIQc7prwYYCa0xO411YbqM9jRoUK2lGlYbajGn6dJBy7T6hrH3-cdM", "results": [{"formatted_address": "Amherst, MA 01003, USA", "geometry": {"location": {"lat": 42.3867598, "lng": -72.5300515}, "viewport": {"northeast": {"lat": 42.38810962989272, "lng": -72.52870167010728}, "southwest": {"lat": 42.38540997010728, "lng": -72.53140132989273}}}, "icon": "https://maps.gstatic.com/mapfiles/place_api/icons/school-71.png", "id": "609255911fba60dd1bbcd09a02f48f8e49b369ef", "name": "University of Massachusetts Amherst", "photos": [{"height": 853, "html_attributions": ["<a href=\"https://maps.google.com/maps/contrib/107759244219897276770/photos\">University of Massachusetts Amherst</a>"], "photo_reference": "CmRaAAAAsqDyzpWPwFmG1EMWbdW2tk1grrx2v516zzQADtou3Wcbq3VrTRXiWUP4q92QoWyTCSj7U-tGWW7uZRRWC1japWK0uUpFgxvaWLv0gGRO55_Isc9ZiRRbEZkDkxCJjAsGEhBUajt-Y5peqrQk10UoPegAGhRkLtrHT9b9RZCTpUvVPk6Nusy20g", "width": 1280}], "place_id": "ChIJZfjw5HPS5okRBY4UiWBY1qA", "plus_code": {"compound_code": "9FP9+PX Amherst, Belchertown, MA, USA", "global_code": "87J99FP9+PX"}, "rating": 4.4, "reference": "ChIJZfjw5HPS5okRBY4UiWBY1qA", "types": ["university", "point_of_interest", "establishment"], "user_ratings_total": 220}, {"formatted_address": "Boston, MA 02215, USA", "geometry": {"location": {"lat": 42.3504997, "lng": -71.1053991}, "viewport": {"northeast": {"lat": 42.35286220000001, "lng": -71.08646755}, "southwest": {"lat": 42.34777259999999, "lng": -71.12920415}}}, "icon": "https://maps.gstatic.com/mapfiles/place_api/icons/school-71.png", "id": "65f65f9d9b1123c2ecb5d44cd3549d3e17473c4b", "name": "Boston University", "photos": [{"height": 2644, "html_attributions": ["<a href=\"https://maps.google.com/maps/contrib/117150624317506315570/photos\">A Google User</a>"], "photo_reference": "CmRaAAAA_iGoK0ODpsWhzwtdY5f_IbR2xxLYNgJ1kXY5-_ThIRDdeyznLm4XyqcHNe58Eg9uLaSNkZXFTV6WwHJXa-l0D2S1CrXS3rzqBfbBzT5KlOKN_T4tna0u-xMJNPz0gT5GEhC2z4nmD0R_SyLHeV3goHFGGhQ6fFEKKtk9cVN6xr2qdHMM4M-oKQ", "width": 3624}], "place_id": "ChIJFzjlY_B544kRyL6j4ABuNCs", "plus_code": {"compound_code": "9V2V+5R Boston, Massachusetts, USA", "global_code": "87JC9V2V+5R"}, "rating": 4.3, "reference": "ChIJFzjlY_B544kRyL6j4ABuNCs", "types": ["political", "university", "health", "point_of_interest", "establishment"], "user_ratings_total": 327}, {"formatted_address": "Cambridge, MA 02138, USA", "geometry": {"location": {"lat": 42.3770029, "lng": -71.11666009999999}, "viewport": {"northeast": {"lat": 42.38944910000001, "lng": -71.10469164999999}, "southwest": {"lat": 42.35482270000001, "lng": -71.13753664999999}}}, "icon": "https://maps.gstatic.com/mapfiles/place_api/icons/school-71.png", "id": "4ed878b7b36cfa5bf47e9736e64dc6075871f95b", "name": "Harvard University", "photos": [{"height": 3665, "html_attributions": ["<a href=\"https://maps.google.com/maps/contrib/105830750139471200786/photos\">A Google User</a>"], "photo_reference": "CmRaAAAAekMhEJam54Jk_XyueZ7m3fK0SMMAv_G2b9YMN5oVWxSvrmUg73eJfXzeTVvOeRkOhpHJw_kZ8r6HX2C-l-4M5OUfXcGSq9bJ-2cyGM8kl94WQL6JmCVpWdi9txZ0b92FEhAVynxNoKf-357sarW1imOtGhSi46llzal6t2XnWcfRpeoXpdrbgw", "width": 5616}], "place_id": "ChIJmQF_fUJ344kR8Cck7lzGN1k", "plus_code": {"compound_code": "9VGM+R8 Cambridge, Massachusetts, USA", "global_code": "87JC9VGM+R8"}, "rating": 4.4, "reference": "ChIJmQF_fUJ344kR8Cck7lzGN1k", "types": ["university", "political", "point_of_interest", "establishment"], "user_ratings_total": 5054}, {"formatted_address": "360 Huntington Ave, Boston, MA 02115, USA", "geometry": {"location": {"lat": 42.3398067, "lng": -71.0891717}, "viewport": {"northeast": {"lat": 42.34649655, "lng": -71.07879375000002}, "southwest": {"lat": 42.33269914999999, "lng": -71.09826875}}}, "icon": "https://maps.gstatic.com/mapfiles/place_api/icons/school-71.png", "id": "bce03aa6008dff5aee44faae28578f5cdf5bce51", "name": "Northeastern University", "photos": [{"height": 3024, "html_attributions": ["<a href=\"https://maps.google.com/maps/contrib/112335537920905100297/photos\">Rohit Shetty</a>"], "photo_reference": "CmRaAAAAiDZHDETgNjwzq2EqRrZkga6IybFiO6xxGvot8xdmStUN-J2bFdTSbEbRMwboFSezGmajNhBYs4vnDyTvOI2LlsHkcbGkNDf_xggWcFQpQG6SbR-W1-UuLnztgMSVfaUVEhAikwPEUKqSW3wZqaHM4S5gGhSbwMiOnoTCqw_E30TBg15uQy98IA", "width": 4032}], "place_id": "ChIJ4VzPmRl644kRjLkiZeYAe8k", "plus_code": {"compound_code": "8WQ6+W8 Boston, Massachusetts, USA", "global_code": "87JC8WQ6+W8"}, "rating": 4.4, "reference": "ChIJ4VzPmRl644kRjLkiZeYAe8k", "types": ["university", "political", "point_of_interest", "establishment"], "user_ratings_total": 354}, {"formatted_address": "419 Boston Ave, Medford, MA 02155, USA", "geometry": {"location": {"lat": 42.4074843, "lng": -71.1190232}, "viewport": {"northeast": {"lat": 42.4107199, "lng": -71.11299379999998}, "southwest": {"lat": 42.40316429999999, "lng": -71.12103300000001}}}, "icon": "https://maps.gstatic.com/mapfiles/place_api/icons/school-71.png", "id": "bdc1dbd79aa076c5fedbb4bea11ff2e934ed6e92", "name": "Tufts University", "photos": [{"height": 2304, "html_attributions": ["<a href=\"https://maps.google.com/maps/contrib/104811885607260664021/photos\">Juan A. Montiel-Nelson</a>"], "photo_reference": "CmRaAAAAv4wNGJdowvw-XZTZVzgcdBaqW2SbwZfkNh5gXfb1L9DYVnALSXaZMGDhvfyab_1XrNyXYgKQe_HEw2OPbb49TS5_cE53WtWST_EN21qHH3A9V3fqPKNndavK77-ZchDOEhA4YBQP_1jFOPpmQbUW3m_fGhT01EzxtHUectDl7w35Cu99NUokIQ", "width": 4096}], "place_id": "ChIJHwvY2t1244kR5TyD-KE1c64", "plus_code": {"compound_code": "CV4J+X9 Medford, Massachusetts, USA", "global_code": "87JCCV4J+X9"}, "rating": 4.3, "reference": "ChIJHwvY2t1244kR5TyD-KE1c64", "types": ["university", "point_of_interest", "establishment"], "user_ratings_total": 187}, {"formatted_address": "140 Commonwealth Avenue, Chestnut Hill, MA 02467, USA", "geometry": {"location": {"lat": 42.3355488, "lng": -71.16849450000001}, "viewport": {"northeast": {"lat": 42.3431352, "lng": -71.15854445}, "southwest": {"lat": 42.32999959999999, "lng": -71.17762585}}}, "icon": "https://maps.gstatic.com/mapfiles/place_api/icons/school-71.png", "id": "62bb0aa90de80bc88f358d1e79ee485e98bb5705", "name": "Boston College", "photos": [{"height": 2556, "html_attributions": ["<a href=\"https://maps.google.com/maps/contrib/108190339677752396804/photos\">Alex Hatzenbuhler</a>"], "photo_reference": "CmRaAAAAlPEAWTmF2BeC5e33PYybkohmvjxQyvFvY52l6ZcV9gVz6wxUUDwQhzJsaFN2P8QGtFNrumMGOIFMoJZlG-j7TFhEFrgDoEB5Bx7oMm4ARDombhg55LW1dPaLGckZm_RZEhClO0cN4PFFwpGB3W8ZiXIhGhTWYNx1qLyoTPJkjYAM7Gt68n8m7Q", "width": 5050}], "place_id": "ChIJydQlp11444kRbuu4pZCuaAs", "plus_code": {"compound_code": "8RPJ+6J Chestnut Hill, Newton, MA, USA", "global_code": "87JC8RPJ+6J"}, "rating": 4.4, "reference": "ChIJydQlp11444kRbuu4pZCuaAs", "types": ["university", "political", "point_of_interest", "establishment"], "user_ratings_total": 242}, {"formatted_address": "77 Massachusetts Ave, Cambridge, MA 02139, USA", "geometry": {"location": {"lat": 42.360091, "lng": -71.09416}, "viewport": {"northeast": {"lat": 42.36878424999999, "lng": -71.0780791}, "southwest": {"lat": 42.35177684999999, "lng": -71.11153669999999}}}, "icon": "https://maps.gstatic.com/mapfiles/place_api/icons/school-71.png", "id": "69719c0103126aa1381f9a9491f481506b770584", "name": "Massachusetts Institute of Technology", "opening_hours": {"open_now": true}, "photos": [{"height": 2795, "html_attributions": ["<a href=\"https://maps.google.com/maps/contrib/115250859698213266786/photos\">Ali Constantinople</a>"], "photo_reference": "CmRaAAAALt0G_GlboppyOWUiddclPRrTfv06X9GPgF_Kv3dd5UBG3s83o5ddd4bphroLZ7X23IfYhQ0fWpoXeevSJLC6GIVGFsrUh3BhX2TWoUuApBAdVgE6TlN2cCqmkz1daSTnEhBMZ6a53HtxveGfJz0ap_avGhRhMRDI0GXLAZYmSA9vYXFvopJKow", "width": 3711}], "place_id": "ChIJh2oa9apw44kRPCAIs6WO4NA", "plus_code": {"compound_code": "9W64+28 Cambridge, Massachusetts, USA", "global_code": "87JC9W64+28"}, "rating": 4.6, "reference": "ChIJh2oa9apw44kRPCAIs6WO4NA", "types": ["university", "point_of_interest", "establishment"], "user_ratings_total": 2639}, {"formatted_address": "220 Pawtucket St, Lowell, MA 01854, USA", "geometry": {"location": {"lat": 42.6552587, "lng": -71.3247164}, "viewport": {"northeast": {"lat": 42.65657185000001, "lng": -71.32373567010728}, "southwest": {"lat": 42.65131924999999, "lng": -71.32643532989272}}}, "icon": "https://maps.gstatic.com/mapfiles/place_api/icons/school-71.png", "id": "16f9756156132e3a354e081073aeced67c2b1330", "name": "University of Massachusetts Lowell", "photos": [{"height": 1200, "html_attributions": ["<a href=\"https://maps.google.com/maps/contrib/116310107730540753724/photos\">nawaz basha</a>"], "photo_reference": "CmRaAAAA57MMDpEvpyRrz3kBHVXWyj9HiJ26oT74H9Iakk6uaIRC_rw9hWh7IkIxT_ZkmMVOY2Z_esTzWEfswk2HwKYzdST1jCh-4HIf2sg0T6LkXfMqIe6mTA7x6OeoquQh7xSHEhCYX30i2RwqAc8riwkm0B5eGhTHbAWUuYWn1ykA6Ds3cOWKGGd8Uw", "width": 1600}], "place_id": "ChIJgzom-EWk44kRgIjXUdAYQzw", "plus_code": {"compound_code": "MM4G+44 Lowell, Massachusetts, USA", "global_code": "87JCMM4G+44"}, "rating": 4.4, "reference": "ChIJgzom-EWk44kRgIjXUdAYQzw", "types": ["university", "point_of_interest", "establishment"], "user_ratings_total": 110}, {"formatted_address": "100 William T, Morrissey Blvd, Boston, MA 02125, USA", "geometry": {"location": {"lat": 42.3144915, "lng": -71.0373279}, "viewport": {"northeast": {"lat": 42.32601595, "lng": -71.03294079999999}, "southwest": {"lat": 42.30948055000001, "lng": -71.0504892}}}, "icon": "https://maps.gstatic.com/mapfiles/place_api/icons/school-71.png", "id": "cd8eb517285f26bc25a8c3ff5dcd87251bb8822e", "name": "University of Massachusetts Boston", "photos": [{"height": 2144, "html_attributions": ["<a href=\"https://maps.google.com/maps/contrib/110825063968297613590/photos\">Tr\u01b0\u01a1ng Lan H\u01b0\u01a1ng</a>"], "photo_reference": "CmRaAAAAH6usLRnys_TSvAkG0osbA0mfpru4vzrZe1btetVzW80ibwRIlre4WY_Wz0Xqhs9txPzwQnrHt-pVk64xk4VhHz9DGmHVztrxzTN4-vb-Yly8YMYyrL6DdtMiV73nQhAhEhBoF9UPdQdo42aSgNmHHk5HGhRw6ru97lHrTi2X72Z-T2tsnKk39A", "width": 4096}], "place_id": "ChIJH4CMhPt644kRW_t0oSh8Yos", "plus_code": {"compound_code": "8X77+Q3 Boston, Massachusetts, USA", "global_code": "87JC8X77+Q3"}, "rating": 4.3, "reference": "ChIJH4CMhPt644kRW_t0oSh8Yos", "types": ["university", "point_of_interest", "establishment"], "user_ratings_total": 150}, {"formatted_address": "415 South St, Waltham, MA 02453, USA", "geometry": {"location": {"lat": 42.3654796, "lng": -71.2587009}, "viewport": {"northeast": {"lat": 42.36981279999999, "lng": -71.24957819999997}, "southwest": {"lat": 42.3594608, "lng": -71.2643546}}}, "icon": "https://maps.gstatic.com/mapfiles/place_api/icons/school-71.png", "id": "00578df2e93e5d2eb2677c527d946d98c711a72c", "name": "Brandeis University", "opening_hours": {"open_now": true}, "photos": [{"height": 2992, "html_attributions": ["<a href=\"https://maps.google.com/maps/contrib/110287322293285570245/photos\">Ashish Maurya</a>"], "photo_reference": "CmRaAAAAE0iz6fytWigykSjNSB0o5ooZjhhgS5_axG2zVnRsXu-bzw71pb3ffzuxFpDFBNpS4YXi6lzpcNNTpQwJtdph3JZMenl5lQ8eOnqoD0Og7Ykx6PDdxLG5q5LLM8xvSy_GEhDv1vbEMnCp9Szftl958LR2GhTDtf-9v1HhWKgkJPWngbmBKiSLEg", "width": 4000}], "place_id": "ChIJb7a96RWD44kRhPnh0bK8XyM", "plus_code": {"compound_code": "9P8R+5G Waltham, Massachusetts, USA", "global_code": "87JC9P8R+5G"}, "rating": 4.1, "reference": "ChIJb7a96RWD44kRhPnh0bK8XyM", "types": ["university", "political", "point_of_interest", "establishment"], "user_ratings_total": 124}, {"formatted_address": "Amherst, MA 01002, USA", "geometry": {"location": {"lat": 42.3709104, "lng": -72.5170028}, "viewport": {"northeast": {"lat": 42.37742359999999, "lng": -72.5076011}, "southwest": {"lat": 42.36675880000001, "lng": -72.5259539}}}, "icon": "https://maps.gstatic.com/mapfiles/place_api/icons/school-71.png", "id": "a42dbbbc98a89ff04f859e85b366a3a8eaed727c", "name": "Amherst College", "photos": [{"height": 4032, "html_attributions": ["<a href=\"https://maps.google.com/maps/contrib/102723650409399873459/photos\">Sam Wagner</a>"], "photo_reference": "CmRaAAAADmZd4Kbq5GCDEBSjaOfdRi3pdF2WqWEivRf2rI3KrGO4voUQwBJ9SBQdWMTdWqGn6gdo6s59aSpVBn7T6IPzapHaFPHfPfLU_imObCAzJUUQ1U79zQ8Za5hSD0a_k8mJEhBfDFCW8znvPu50DkU8baCEGhRFnaHunMj9wqjMWrinyM0tXUZ0_A", "width": 3024}], "place_id": "ChIJjzZMG_jN5okRvCYRnhDnGUo", "plus_code": {"compound_code": "9FCM+95 Amherst, Belchertown, MA, USA", "global_code": "87J99FCM+95"}, "rating": 3.7, "reference": "ChIJjzZMG_jN5okRvCYRnhDnGUo", "types": ["museum", "university", "school", "point_of_interest", "establishment"], "user_ratings_total": 86}, {"formatted_address": "106 Central St, Wellesley, MA 02481, USA", "geometry": {"location": {"lat": 42.2935733, "lng": -71.3059277}, "viewport": {"northeast": {"lat": 42.2993176, "lng": -71.28899619999999}, "southwest": {"lat": 42.28659359999999, "lng": -71.3207846}}}, "icon": "https://maps.gstatic.com/mapfiles/place_api/icons/school-71.png", "id": "3e17b922ad4f3aed354277ef1a2d6d7ef78a7e5b", "name": "Wellesley College", "photos": [{"height": 4032, "html_attributions": ["<a href=\"https://maps.google.com/maps/contrib/111050153689771221330/photos\">Jack Nevins</a>"], "photo_reference": "CmRaAAAA7NoSgrRPxdrbSb4Ynigzs6l6GDPbIc4hKWlh0lCYeSeff0EYgoFqIdOITC_xZDosSgSSBuSUnmCyVfLewSgcJ30ROHLchGxJxLIUXvhTRcFkZ7pGUHYeKXb9zjBvEJ4PEhClFUOsegAB2ADKQQGCcr6KGhTTARBMQGLwA96OZ8h92JGhVI33VQ", "width": 3024}], "place_id": "ChIJ9XNeocOG44kRNUefD17JNlo", "plus_code": {"compound_code": "7MVV+CJ Wellesley, Massachusetts, USA", "global_code": "87JC7MVV+CJ"}, "rating": 4.5, "reference": "ChIJ9XNeocOG44kRNUefD17JNlo", "types": ["university", "point_of_interest", "establishment"], "user_ratings_total": 120}, {"formatted_address": "300 Fenway, Boston, MA 02115, USA", "geometry": {"location": {"lat": 42.3393661, "lng": -71.0999358}, "viewport": {"northeast": {"lat": 42.34080322989272, "lng": -71.09847547010729}, "southwest": {"lat": 42.33810357010728, "lng": -71.10117512989272}}}, "icon": "https://maps.gstatic.com/mapfiles/place_api/icons/school-71.png", "id": "4913c99d1ac5b0cb5687a1d478b089aeb285585d", "name": "Simmons University", "photos": [{"height": 2752, "html_attributions": ["<a href=\"https://maps.google.com/maps/contrib/114226484431408198714/photos\">Hien Nguyen</a>"], "photo_reference": "CmRaAAAAcUqHw3fewrW6OZ-vSVZjK-JHUnyk0BOX8Grp-wa2A1HjQlpUmDEqhV419n9pVUBlekZiUSQ65q9XUw3wux7oa-yu8LHYBZ72gDMfRXcDjWMgorRh7jvZNHYjI7u2RhDlEhAi541Cf9v78xjUsxjX1lKMGhRnUJvUYbXSbwwXgOD2HLcZjySDgA", "width": 4896}], "place_id": "ChIJxclD5_d544kRlkO9x3tXeqc", "plus_code": {"compound_code": "8WQ2+P2 Boston, Massachusetts, USA", "global_code": "87JC8WQ2+P2"}, "rating": 3.8, "reference": "ChIJxclD5_d544kRlkO9x3tXeqc", "types": ["university", "point_of_interest", "establishment"], "user_ratings_total": 34}, {"formatted_address": "Northampton, MA 01063, USA", "geometry": {"location": {"lat": 42.31809570000001, "lng": -72.6372341}, "viewport": {"northeast": {"lat": 42.32351045000001, "lng": -72.63263094999998}, "southwest": {"lat": 42.30977745, "lng": -72.64279754999998}}}, "icon": "https://maps.gstatic.com/mapfiles/place_api/icons/school-71.png", "id": "9b73aae74fc07ac2c3471eacac7f1e383ac339af", "name": "Smith College", "photos": [{"height": 2400, "html_attributions": ["<a href=\"https://maps.google.com/maps/contrib/114535657954579557161/photos\">Derek Xia</a>"], "photo_reference": "CmRaAAAAlphYo1x18WjBP0VUslKLxcisK-nY3AbQKrQk3U-STj5TewouUERWiTwNkZKyIKcHv9hH5Tvmp6U_nD6zT1HZQR069fKZYxXoJJAe1zvbWEVqxW9HnQsiNy--P4TXHjKYEhDkAAlF0IcuSJmqKHE-fjj7GhThqAZyUyVyBWqUrJsQWd8J-EsxIg", "width": 3600}], "place_id": "ChIJiVouamjX5okRhESdeEVEFh4", "plus_code": {"compound_code": "8997+64 Northampton, Massachusetts, USA", "global_code": "87J98997+64"}, "rating": 4.3, "reference": "ChIJiVouamjX5okRhESdeEVEFh4", "types": ["university", "point_of_interest", "establishment"], "user_ratings_total": 72}, {"formatted_address": "880 Main St, Williamstown, MA 01267, USA", "geometry": {"location": {"lat": 42.7129581, "lng": -73.2036396}, "viewport": {"northeast": {"lat": 42.72433409999999, "lng": -73.17960219999998}, "southwest": {"lat": 42.7014121, "lng": -73.223083}}}, "icon": "https://maps.gstatic.com/mapfiles/place_api/icons/school-71.png", "id": "ac64f8a6b2c6a25e3b41ebc8858d56bc2dd331ae", "name": "Williams College", "photos": [{"height": 2448, "html_attributions": ["<a href=\"https://maps.google.com/maps/contrib/108091866205118490109/photos\">Alexa Walkovitz</a>"], "photo_reference": "CmRaAAAA3aVIoLvCzJ9gQgjrG28F_vXWCXApaH5yCdNohTpfWB1FcWP-4zopA_irqdKdlcOyfoYNJUP3-qmnBiamc8WHqsiXUWfW5wTEusioLrgDiIAcsfHfmlR8AViTwZHgOGZOEhDPxY9h_N-xkXWgt0zXcpThGhQ8ji6Jc2zQi-YtvHXzL9O8KtTp-g", "width": 3264}], "place_id": "ChIJhRgKChW64IkRoFsHduqOYHs", "plus_code": {"compound_code": "PQ7W+5G Williamstown, MA, USA", "global_code": "87J8PQ7W+5G"}, "rating": 4.7, "reference": "ChIJhRgKChW64IkRoFsHduqOYHs", "types": ["university", "point_of_interest", "establishment"], "user_ratings_total": 70}, {"formatted_address": "8 Ashburton Pl, Boston, MA 02108, USA", "geometry": {"location": {"lat": 42.3585205, "lng": -71.0613561}, "viewport": {"northeast": {"lat": 42.35998647989273, "lng": -71.06003737010728}, "southwest": {"lat": 42.35728682010728, "lng": -71.06273702989273}}}, "icon": "https://maps.gstatic.com/mapfiles/place_api/icons/school-71.png", "id": "39ed15f44af0824bd8582acbc1cf0df36a41e070", "name": "Suffolk University", "photos": [{"height": 4032, "html_attributions": ["<a href=\"https://maps.google.com/maps/contrib/100790037575662774247/photos\">Buddy T</a>"], "photo_reference": "CmRaAAAAi6OBe_wIcLgHCEDcs_vXj0M4ArDnWB-ud7yO5GIu0PmL5izr9itL7HzikJRPAHNZbhQlhYf4FIqmmZL5oIq9haSbi10xJlhXkKh47i6nvoJuXRDNo01jq0CDpWTAs2AIEhDa_cZsHihKhmvrRJLCtNPCGhSJzGPOe-yvXT-c6CV0N6h2tQ3F1g", "width": 3024}], "place_id": "ChIJ4VSYqpxw44kRy5YykRJk8Zw", "plus_code": {"compound_code": "9W5Q+CF Boston, Massachusetts, USA", "global_code": "87JC9W5Q+CF"}, "rating": 4.3, "reference": "ChIJ4VSYqpxw44kRy5YykRJk8Zw", "types": ["political", "university", "point_of_interest", "establishment"], "user_ratings_total": 50}, {"formatted_address": "175 Forest St, Waltham, MA 02452, USA", "geometry": {"location": {"lat": 42.3867756, "lng": -71.2203176}, "viewport": {"northeast": {"lat": 42.39326279999999, "lng": -71.21459455}, "southwest": {"lat": 42.38221720000001, "lng": -71.22903955}}}, "icon": "https://maps.gstatic.com/mapfiles/place_api/icons/school-71.png", "id": "ff9d9d2eab7d49562a95ed1876d7d381b918354d", "name": "Bentley University", "photos": [{"height": 367, "html_attributions": ["<a href=\"https://maps.google.com/maps/contrib/116232176301281507365/photos\">A Google User</a>"], "photo_reference": "CmRaAAAAwIBd7j9IwsmpG158VQN5_9SKoj2mtj1dqKZFrmgqJ16lpxHIvJfSytrK8SAcycXLHEB7tX_Oj8sFKb34vL5il-z4uki1NhhV80YaWrC9YWcW75ixnQ9dtcfjPlNrtAceEhAy4jHsahiral4XEheEQrwOGhRvusmCZsaRoYoYXj8YXTP71F_xIg", "width": 652}], "place_id": "ChIJRxq6yTad44kRqpAmDsj5H4Y", "plus_code": {"compound_code": "9QPH+PV Waltham, Massachusetts, USA", "global_code": "87JC9QPH+PV"}, "rating": 4.7, "reference": "ChIJRxq6yTad44kRqpAmDsj5H4Y", "types": ["university", "library", "point_of_interest", "establishment"], "user_ratings_total": 84}, {"formatted_address": "285 Old Westport Rd, North Dartmouth, MA 02747, USA", "geometry": {"location": {"lat": 41.6282132, "lng": -71.00415}, "viewport": {"northeast": {"lat": 41.63762834999999, "lng": -70.99058325000001}, "southwest": {"lat": 41.62245895000001, "lng": -71.01309345}}}, "icon": "https://maps.gstatic.com/mapfiles/place_api/icons/school-71.png", "id": "4c373f257a84281ebc062725f54217354655a53a", "name": "University of Massachusetts Dartmouth", "photos": [{"height": 2988, "html_attributions": ["<a href=\"https://maps.google.com/maps/contrib/111683939324156117704/photos\">Mahmud-Ul-Hasan Monim</a>"], "photo_reference": "CmRaAAAAkvKVGDReffjt6dlFGMvE2mmp69L7BMhEOdl_EuXdQlkvoO770yDS7lkGZ2Ji7OnTfYeFC7K-fLEnmFf3CV6OwZbL4ob-guoYRdLBn66aJ86As1GkEmSx9ri4xyc3T6E6EhCEuSoHqoIVXyDxeDs0cpp4GhTNd_oUezopbhLF68iJjfT-0s7f6Q", "width": 5312}], "place_id": "ChIJhxAqMMz85IkR81zHLYaHjl4", "plus_code": {"compound_code": "JXHW+78 North Dartmouth, Dartmouth, MA, USA", "global_code": "87HCJXHW+78"}, "rating": 4, "reference": "ChIJhxAqMMz85IkR81zHLYaHjl4", "types": ["university", "point_of_interest", "establishment"], "user_ratings_total": 87}, {"formatted_address": "352 Lafayette St, Salem, MA 01970, USA", "geometry": {"location": {"lat": 42.503103, "lng": -70.890682}, "viewport": {"northeast": {"lat": 42.51036644999999, "lng": -70.88592929999999}, "southwest": {"lat": 42.49507625, "lng": -70.89857330000001}}}, "icon": "https://maps.gstatic.com/mapfiles/place_api/icons/school-71.png", "id": "0a59b5ca3ac75c7a47a592d9dce80bb90b884e99", "name": "Salem State University", "photos": [{"height": 3840, "html_attributions": ["<a href=\"https://maps.google.com/maps/contrib/108235367165148638456/photos\">Salem State University</a>"], "photo_reference": "CmRaAAAAVZFvjVbksOe7xClE_5r-8OGfSix4o9YBUq987b0NDi3UcjLkLtxWjwxurZlbxT2dUDChIU9p8-QSOHtk5xJB5wA8vKO6MSgPhTprx4ZDlHi6AXN0R35Bpom7b-YEIm-EEhD6GVQy7qj6TQ9cZm4wB79xGhTBtPJMudtRERapOR8JATB2W1u6KA", "width": 5760}], "place_id": "ChIJRRyPM5AU44kRpa944hp_8y8", "plus_code": {"compound_code": "G435+6P Salem, Massachusetts, USA", "global_code": "87JFG435+6P"}, "rating": 4.2, "reference": "ChIJRRyPM5AU44kRpa944hp_8y8", "types": ["political", "university", "point_of_interest", "establishment"], "user_ratings_total": 61}, {"formatted_address": "100 Institute Rd, Worcester, MA 01609, USA", "geometry": {"location": {"lat": 42.27463669999999, "lng": -71.8063379}, "viewport": {"northeast": {"lat": 42.2789954, "lng": -71.7943924}, "southwest": {"lat": 42.270415, "lng": -71.8198108}}}, "icon": "https://maps.gstatic.com/mapfiles/place_api/icons/school-71.png", "id": "8791679e3d3047074fe25a8e6749d2f6025b0534", "name": "Worcester Polytechnic Institute", "photos": [{"height": 4032, "html_attributions": ["<a href=\"https://maps.google.com/maps/contrib/118329139599763670253/photos\">Eduard Guzovsky</a>"], "photo_reference": "CmRaAAAAV3AmW-qnK0bfUTjCH5Ka1tlc10hYxtHYkN9xg4lcW6RQK-0hRyIQ7tazLp598pVTu2vdCBGbTMz26TlBaSIUHDHP15ooPIC50Weu2a4HamlNh-jH5dvBpkmjDfEKTjfHEhBy-UDTgfCLbprK8R8f1-YNGhReMNm0FQnlRU5EEDU5jXWeq17gGg", "width": 3024}], "place_id": "ChIJdzY3EFkG5IkRrW3cc4Yhw8Y", "plus_code": {"compound_code": "75FV+VF Worcester, Massachusetts, USA", "global_code": "87JC75FV+VF"}, "rating": 4.5, "reference": "ChIJdzY3EFkG5IkRrW3cc4Yhw8Y", "types": ["university", "point_of_interest", "establishment"], "user_ratings_total": 123}, {"formatted_address": "486 Chandler St, Worcester, MA 01602, USA", "geometry": {"location": {"lat": 42.2679274, "lng": -71.84417490000001}, "viewport": {"northeast": {"lat": 42.2720905, "lng": -71.83877459999998}, "southwest": {"lat": 42.2654169, "lng": -71.84597500000002}}}, "icon": "https://maps.gstatic.com/mapfiles/place_api/icons/school-71.png", "id": "140d8b00c3c53debe7a8535da109bc2139f9fa8a", "name": "Worcester State University", "photos": [{"height": 2988, "html_attributions": ["<a href=\"https://maps.google.com/maps/contrib/105479372801683719385/photos\">Onysela Valdez</a>"], "photo_reference": "CmRaAAAAE54EoDBTYxmWQDukOffLGT-Mcf4fAtIc3KSlrsJDEC9qrfNrsc-_EL_ONp_jRkiiLc3f2gFS0cTfMU3mBxhRwhN-jZEzLVZM6BYeF-NuiJ7lAUZ6UAmicjzyD7RcoteoEhBkOyeCIklbdNfo1KAMrJFkGhSNlJkriL9XkrwHVGdgj7AvDWtNBA", "width": 5312}], "place_id": "ChIJtTXrE7oG5IkRiu9wZBwjnAg", "plus_code": {"compound_code": "7594+58 Worcester, Massachusetts, USA", "global_code": "87JC7594+58"}, "rating": 4.2, "reference": "ChIJtTXrE7oG5IkRiu9wZBwjnAg", "types": ["university", "point_of_interest", "establishment"], "user_ratings_total": 54}, {"formatted_address": "131 Summer St, Bridgewater, MA 02324, USA", "geometry": {"location": {"lat": 41.987662, "lng": -70.96654989999999}, "viewport": {"northeast": {"lat": 41.9957205, "lng": -70.94786904999998}, "southwest": {"lat": 41.9828005, "lng": -70.98097645}}}, "icon": "https://maps.gstatic.com/mapfiles/place_api/icons/school-71.png", "id": "4554df2092248a2b5e89f74f1dce9222f2538fd7", "name": "Bridgewater State University", "photos": [{"height": 3456, "html_attributions": ["<a href=\"https://maps.google.com/maps/contrib/101780610652631531891/photos\">John Mackinnon</a>"], "photo_reference": "CmRaAAAA9Xdyi_oV_TV4f8sg5b4SlkaK-DQ98RQHxu9Hk6yPGzqga2slxphN046uC5J_aQxPluB4J3V_CR4mYhR_2mi-sOJDPSg7X-V5Sj6wBZfiPqN6b72ZFHVWSQGz83yU9-3PEhDGdrBSjrS_DqCYNoZ6n69YGhSuQbmbFRGR7zijE3QnQcA618Nf3Q", "width": 5184}], "place_id": "ChIJL9ElALKR5IkRItCJYsK4XOI", "plus_code": {"compound_code": "X2QM+39 Bridgewater, MA, USA", "global_code": "87HFX2QM+39"}, "rating": 3.8, "reference": "ChIJL9ElALKR5IkRItCJYsK4XOI", "types": ["university", "point_of_interest", "establishment"], "user_ratings_total": 78}, {"formatted_address": "100 State St, Framingham, MA 01701, USA", "geometry": {"location": {"lat": 42.2979971, "lng": -71.4370921}, "viewport": {"northeast": {"lat": 42.30180165, "lng": -71.43540139999999}, "southwest": {"lat": 42.29457705, "lng": -71.4421642}}}, "icon": "https://maps.gstatic.com/mapfiles/place_api/icons/school-71.png", "id": "c6a1d91b9237f1058cecf78ca695652f7008aa50", "name": "Framingham State University", "opening_hours": {"open_now": true}, "photos": [{"height": 1365, "html_attributions": ["<a href=\"https://maps.google.com/maps/contrib/107388079868249759040/photos\">Framingham State University</a>"], "photo_reference": "CmRaAAAAvWvQ8AmaoWvm0kR4ciShB0BRcXtI8MWyYnt41r-VLwBCXNHyNaN4kvFFYyzpsq1_xpmCnUWHGcFGAzZZbolwF-2K-r-NbE45-Oq46xmz5vYZghHP27XYHaGRxSwdKNzLEhCRRoTtjs6WRqtfVztTkQ8WGhS_5bHENH3aDJPmEiNjvFhFbjjGkw", "width": 2048}], "place_id": "ChIJCVVeOKmJ44kRRoXXzxk0yms", "plus_code": {"compound_code": "7HX7+55 Framingham, Massachusetts, USA", "global_code": "87JC7HX7+55"}, "rating": 3.5, "reference": "ChIJCVVeOKmJ44kRRoXXzxk0yms", "types": ["university", "point_of_interest", "establishment"], "user_ratings_total": 45}, {"formatted_address": "50 College St, South Hadley, MA 01075, USA", "geometry": {"location": {"lat": 42.2532535, "lng": -72.5761394}, "viewport": {"northeast": {"lat": 42.25461237989272, "lng": -72.57479002010727}, "southwest": {"lat": 42.25191272010728, "lng": -72.57748967989272}}}, "icon": "https://maps.gstatic.com/mapfiles/place_api/icons/school-71.png", "id": "0776999f7a7951455a7226abae7e09ecc01e030e", "name": "Mount Holyoke College", "photos": [{"height": 2448, "html_attributions": ["<a href=\"https://maps.google.com/maps/contrib/102700005650360265417/photos\">Lucia Foley</a>"], "photo_reference": "CmRaAAAAQcuu_-YWpuJaucm1Ci69uXzNtzLiPKSPR5WPpLZB5fYoVb-uFHrcB58FfoqXjxl4jRvqOLDighxIw5q3LW1_BCpk53yZkdnM3Q-cnJRYD5tYawtkhrgB6VcxJXBNOBGxEhAO1vBoWS4wsd_QkZR6LMgeGhSwAeg1mrggoRMYc0Vd80Z2tBHzkg", "width": 3264}], "place_id": "ChIJFylIta3b5okRTE0J9Tm-qMU", "plus_code": {"compound_code": "7C3F+8G South Hadley, Massachusetts, USA", "global_code": "87J97C3F+8G"}, "rating": 3.8, "reference": "ChIJFylIta3b5okRTE0J9Tm-qMU", "types": ["political", "university", "point_of_interest", "establishment"], "user_ratings_total": 94}, {"formatted_address": "160 Pearl St, Fitchburg, MA 01420, USA", "geometry": {"location": {"lat": 42.5900165, "lng": -71.7889139}, "viewport": {"northeast": {"lat": 42.59464705, "lng": -71.78529435}, "southwest": {"lat": 42.58547885, "lng": -71.79245095000002}}}, "icon": "https://maps.gstatic.com/mapfiles/place_api/icons/school-71.png", "id": "b424df036562af6ffc97de0aab7cd12e742e82a4", "name": "Fitchburg State University", "photos": [{"height": 3024, "html_attributions": ["<a href=\"https://maps.google.com/maps/contrib/115623591626747192241/photos\">a beauregard</a>"], "photo_reference": "CmRaAAAA-LF1oOrQnuO2IWOSeXSkulnKKS6rikNDr6HxTOnuWE7ypeQ7Gw0U_yo-gBKbDU7uuCVVSCCJoJ7sgToj8Pn6j2bZo3Et6gAkLudzWesS3C4TLGT9nIn_S9bsMpK3leKLEhDVLIeQzuTphVVxLv1sSVzeGhRtv-XFTLnKxHDADe9sI-6uY-2rvw", "width": 4032}], "place_id": "ChIJcctHGLXn44kRGN4NURMIPeY", "plus_code": {"compound_code": "H6R6+2C Fitchburg, Lunenburg, MA, USA", "global_code": "87JCH6R6+2C"}, "rating": 4.1, "reference": "ChIJcctHGLXn44kRGN4NURMIPeY", "types": ["university", "point_of_interest", "establishment"], "user_ratings_total": 29}, {"formatted_address": "1 College St, Worcester, MA 01610, USA", "geometry": {"location": {"lat": 42.2392391, "lng": -71.8079608}, "viewport": {"northeast": {"lat": 42.24058892989272, "lng": -71.80661097010729}, "southwest": {"lat": 42.23788927010727, "lng": -71.80931062989274}}}, "icon": "https://maps.gstatic.com/mapfiles/place_api/icons/school-71.png", "id": "3483a437edc7b2e1e5ee2a85258b6f977544868e", "name": "College of the Holy Cross", "photos": [{"height": 360, "html_attributions": ["<a href=\"https://maps.google.com/maps/contrib/104916836922282240799/photos\">College of the Holy Cross</a>"], "photo_reference": "CmRaAAAAVrave33VbHjS0ETG5gS5RG7N03YEgGG4pIJk3_Hbic9w2gkhJLXe99IbXK7MVqfoCxagDqilck3o2VJ0OZeGTX4vJeXbkq-gdYxWOkqKwHiyWoG_bmwHbuKxJ-lCUnCiEhB2cJPwRvuqc3whD8CiDn1KGhQ4MvdyX9W3fUcShLldKL1XrLIjmw", "width": 640}], "place_id": "ChIJQ-Vd_cwF5IkRYsjVU9iyQUE", "plus_code": {"compound_code": "65QR+MR Worcester, Massachusetts, USA", "global_code": "87JC65QR+MR"}, "rating": 4.3, "reference": "ChIJQ-Vd_cwF5IkRYsjVU9iyQUE", "types": ["university", "cemetery", "point_of_interest", "establishment"], "user_ratings_total": 58}, {"formatted_address": "231 Forest St, Babson Park, MA 02457, USA", "geometry": {"location": {"lat": 42.2964421, "lng": -71.2657077}, "viewport": {"northeast": {"lat": 42.3021187, "lng": -71.2566417}, "southwest": {"lat": 42.29454990000001, "lng": -71.2741389}}}, "icon": "https://maps.gstatic.com/mapfiles/place_api/icons/school-71.png", "id": "b5eed91828616ba3d4bdfaaf53cef4c3e33bfcb8", "name": "Babson College", "photos": [{"height": 3120, "html_attributions": ["<a href=\"https://maps.google.com/maps/contrib/103779904167045352591/photos\">Carlos Alberto Barrios</a>"], "photo_reference": "CmRaAAAAjc6miwV97BAjR2_4dUQ5E5QuP9PdIoERTcx1tLvTa0m_ZX-PuV2AhrdEnAKDSotWYhBlY2CbUyxHURhvD3sIJuZX2w1YIiEXBJe9ywjlZnBE8Dx-S35KNbHZZ6ZGizq9EhAIHod_bDKHOWcGuv7Oaup2GhSCkA1cAg1Mbz8ANJ2z0AfLYrbHkQ", "width": 4160}], "place_id": "ChIJ7xQZi0GB44kRiWrnmTgf904", "plus_code": {"compound_code": "7PWM+HP Babson Park, Wellesley, MA, USA", "global_code": "87JC7PWM+HP"}, "rating": 4.6, "reference": "ChIJ7xQZi0GB44kRiWrnmTgf904", "types": ["university", "point_of_interest", "establishment"], "user_ratings_total": 91}], "status": "OK"}, "Michigan": {"html_attributions": [], "next_page_token": "CpQCDAEAAOYF6AcrmivyTaSbUu5oxqAwSQ_SqJxiWQOvZt3vcBGmi1zjJrGC7DtAt9eM4bsuUClc9T23ldnAKDRRK_sf6qgwWSPaA4hJJUBUIPv-U57_CVuyplTrb5l3JoqnC1uVjnl7s-eGDmAfrPwemSIvCH8eFwdU9nKqwXMFUnNQYsyuy5jlltFJw9xMNKyrqUsQ4wfys3UyNcsiAIUi8zk_3BMN5ZOhZVjXFFM766gzqIkY-B6FnZbJ_EzlOug3QgZfPfynFIVnEcW22lK3X3Lvu0dYD874C4dZLNO7nVpgreHpj0fg_cCseMVSEaNYVi5vmNoiYGHnbI1KIdXVa8C9-ZIAPc5b9Jrczfo7QzNN1Cf3EhBTLT_LCZanzT94wy1SmRjtGhTM-CNNpy7k9v3RsJ1a4HAekPYepw", "results": [{"formatted_address": "500 S State St, Ann Arbor, MI 48109, USA", "geometry": {"location": {"lat": 42.2780436, "lng": -83.7382241}, "viewport": {"northeast": {"lat": 42.2860173, "lng": -83.7288695}, "southwest": {"lat": 42.2672541, "lng": -83.74456429999998}}}, "icon": "https://maps.gstatic.com/mapfiles/place_api/icons/school-71.png", "id": "91a0a6bfeab397c9d5f84e6e8fa8b6d4d7dd6f12", "name": "University of Michigan", "photos": [{"height": 300, "html_attributions": ["<a href=\"https://maps.google.com/maps/contrib/108004023321023962850/photos\">Michael Dawe</a>"], "photo_reference": "CmRaAAAAKkSXVaDOKSLkibniY9M6sUEbMsmnajFBFPt2JVjumGLfVBhL4Dwc9FVoL2GFcNyoMViRmc5jjJSehoXVi-qtzAxYrB6TkYAJcIHx4hd11NWeY2V5-GlSKHMwYf6W24G6EhCccCGoeCUjlCM_KMGroj7VGhTks3lGpK7cP-qtfYn6W6JNKh-hUw", "width": 400}], "place_id": "ChIJARfe5ziuPIgR45fpeFFOoVs", "plus_code": {"compound_code": "77H6+6P Ann Arbor, Michigan, USA", "global_code": "86JR77H6+6P"}, "rating": 4.4, "reference": "ChIJARfe5ziuPIgR45fpeFFOoVs", "types": ["university", "point_of_interest", "establishment"], "user_ratings_total": 540}, {"formatted_address": "220 Trowbridge Rd, East Lansing, MI 48824, USA", "geometry": {"location": {"lat": 42.701848, "lng": -84.4821719}, "viewport": {"northeast": {"lat": 42.75152875000001, "lng": -84.44253085}, "southwest": {"lat": 42.68528775, "lng": -84.52177664999999}}}, "icon": "https://maps.gstatic.com/mapfiles/place_api/icons/school-71.png", "id": "5ef88de3a2bd054bfe72d31250e6b917f3e9889c", "name": "Michigan State University", "photos": [{"height": 960, "html_attributions": ["<a href=\"https://maps.google.com/maps/contrib/115200437042049048546/photos\">Kuiyan Xu</a>"], "photo_reference": "CmRaAAAAjcxFtVwVYcdRokC-LWpvkovNhwtEv8HN7_C5AE0muODWA2HnoLR61DVy5PCyZBgXVVi89rx861roE8uJgiRCI0SHLcB_59EdmAKJH_gcqCXyDVWnOF9oQlBVd5V8n7SBEhDCSzL-hts8b_qli1F0e3yRGhTp3w-FEqX8AxLE_k2CjTzDcSYu1g", "width": 1280}], "place_id": "ChIJY42I2lnCIogRPzuqBauYmG4", "plus_code": {"compound_code": "PG29+P4 Meridian Charter Township, Michigan, USA", "global_code": "86JQPG29+P4"}, "rating": 4, "reference": "ChIJY42I2lnCIogRPzuqBauYmG4", "types": ["university", "political", "school", "point_of_interest", "establishment"], "user_ratings_total": 558}, {"formatted_address": "1200 S Franklin St, Mt Pleasant, MI 48859, USA", "geometry": {"location": {"lat": 43.5819086, "lng": -84.7756364}, "viewport": {"northeast": {"lat": 43.60621965, "lng": -84.75779995}, "southwest": {"lat": 43.55547745, "lng": -84.79713495000001}}}, "icon": "https://maps.gstatic.com/mapfiles/place_api/icons/school-71.png", "id": "406f5c04a8b31c2f285fee9675a12352d7b10e19", "name": "Central Michigan University", "photos": [{"height": 2448, "html_attributions": ["<a href=\"https://maps.google.com/maps/contrib/108178862351311180746/photos\">Erik Hammar</a>"], "photo_reference": "CmRaAAAABgMlLVlmp-OXY9gZUPWiVqo5tBa6Vf4EV1xAOLQIzKAB0CjqUGUkb0VFRFnuMKAnDYmrfyPnKi8aC7S9wWjOLyWGMUzn4X3rQPCwC2nz3hEJBfGxatrsO8YxldWomKTCEhBpXBCU5CHwLbxd0RBc90lFGhQQ4qw8eq-mUk27GS2epYCQE1NZDQ", "width": 3264}], "place_id": "ChIJ7aQjxrMEIogRHzx5Xh86xMM", "plus_code": {"compound_code": "H6JF+QP Mt Pleasant, Michigan, USA", "global_code": "86MQH6JF+QP"}, "rating": 4.1, "reference": "ChIJ7aQjxrMEIogRHzx5Xh86xMM", "types": ["university", "point_of_interest", "establishment"], "user_ratings_total": 152}, {"formatted_address": "42 W Warren Ave, Detroit, MI 48202, USA", "geometry": {"location": {"lat": 42.3591388, "lng": -83.06654619999999}, "viewport": {"northeast": {"lat": 42.3692941, "lng": -83.04751350000001}, "southwest": {"lat": 42.34156729999999, "lng": -83.08172710000001}}}, "icon": "https://maps.gstatic.com/mapfiles/place_api/icons/school-71.png", "id": "be2726c6858ef7f9935f756c02d3504eea77f01f", "name": "Wayne State University", "photos": [{"height": 1072, "html_attributions": ["<a href=\"https://maps.google.com/maps/contrib/103913699203270805801/photos\">Kenneth Smith</a>"], "photo_reference": "CmRaAAAAHyjqvVr5pUNksmcRqYoEsOnkholQnSTDKBxAIE-spgmSBj49zGRHwdcfXGu2k0X46k_iYuRe5Q4_AGZtOmDkdsnbjiU7ka7F9DDhc7Lw7_xoSnAKBeb0uLL5OOKkQQuiEhDByeqb1xejQTYPFuAJj08rGhSdIpHh70burr-_aZP-b4pu_9jgYA", "width": 1745}], "place_id": "ChIJQ9hCnbzSJIgRTl7fSYmWiLY", "plus_code": {"compound_code": "9W5M+M9 Detroit, Michigan, USA", "global_code": "86JR9W5M+M9"}, "rating": 4, "reference": "ChIJQ9hCnbzSJIgRTl7fSYmWiLY", "types": ["university", "point_of_interest", "establishment"], "user_ratings_total": 252}, {"formatted_address": "1903 Western Michigan Avenue, Kalamazoo, MI 49008, USA", "geometry": {"location": {"lat": 42.2837336, "lng": -85.6102507}, "viewport": {"northeast": {"lat": 42.2950064, "lng": -85.58463655000001}, "southwest": {"lat": 42.2697152, "lng": -85.63602234999999}}}, "icon": "https://maps.gstatic.com/mapfiles/place_api/icons/school-71.png", "id": "a1969622022e1be318149dbf86b2b3667b1aa15d", "name": "Western Michigan University", "photos": [{"height": 2988, "html_attributions": ["<a href=\"https://maps.google.com/maps/contrib/107947975775908653327/photos\">Ray Kim</a>"], "photo_reference": "CmRaAAAA2EOElKyHyPHIN72Up--CW_leJxTdhQjbxImDvUElc73WH_WcdmW1U4z0FYNGGJeXc3zLUuGm5te3qfQI2CKXg8ve3F9VHOWBYecLgu5tyH1QdSKof1J94TdTGwbPGVugEhBw53anXYWpIykUrHmXOGOhGhTBenT1MDHBLM4jDtRVKRD-qLOsXA", "width": 5312}], "place_id": "ChIJrScPrtt3F4gRW2PquYYXfME", "plus_code": {"compound_code": "79MQ+FV Kalamazoo, Michigan, USA", "global_code": "86JP79MQ+FV"}, "rating": 4.1, "reference": "ChIJrScPrtt3F4gRW2PquYYXfME", "types": ["university", "point_of_interest", "establishment"], "user_ratings_total": 184}, {"formatted_address": "1 Campus Dr, Allendale, MI 49401, USA", "geometry": {"location": {"lat": 42.9639298, "lng": -85.8889489}, "viewport": {"northeast": {"lat": 42.97914365, "lng": -85.88758400000002}, "southwest": {"lat": 42.94592305, "lng": -85.89284559999999}}}, "icon": "https://maps.gstatic.com/mapfiles/place_api/icons/school-71.png", "id": "75a09a51a137e2fbf31b430e23b8ffa079c8481b", "name": "Grand Valley State University", "photos": [{"height": 4032, "html_attributions": ["<a href=\"https://maps.google.com/maps/contrib/103347574235710394679/photos\">A Google User</a>"], "photo_reference": "CmRaAAAA6qPE_WZ4O_2Rdp_RAUs_8bqYuga_61nRtCfwNR7VP91KVFrXmkmg3SvQd3a7OngEWWQmbgp6kySUJr0EH8V6eLx1t5NbPi3_HkMbQXjnvAbD-eQDj5rh8YbaX5XsFubkEhCHkjLjY3lxYAE1XPvZR1CbGhRooR-rO9-LWncZ_M8-WRyxgUe4Cw", "width": 3024}], "place_id": "ChIJjzmdDB-jGYgR-jLs4LNnA-o", "plus_code": {"compound_code": "X476+HC Allendale, Allendale Charter Twp, MI, USA", "global_code": "86JPX476+HC"}, "rating": 4.3, "reference": "ChIJjzmdDB-jGYgR-jLs4LNnA-o", "types": ["university", "point_of_interest", "establishment"], "user_ratings_total": 178}, {"formatted_address": "4901 Evergreen Rd, Dearborn, MI 48128, USA", "geometry": {"location": {"lat": 42.31763429999999, "lng": -83.2320299}, "viewport": {"northeast": {"lat": 42.3268121, "lng": -83.22449535}, "southwest": {"lat": 42.3080205, "lng": -83.23579194999999}}}, "icon": "https://maps.gstatic.com/mapfiles/place_api/icons/school-71.png", "id": "fcdf0b1bc0f3bfc5a7ea5bd3c8344bc8de447678", "name": "University of Michigan - Dearborn", "photos": [{"height": 3120, "html_attributions": ["<a href=\"https://maps.google.com/maps/contrib/115368312889893183747/photos\">Alex Rago</a>"], "photo_reference": "CmRaAAAAYPhCIpa7pX7QDDsK1z9YD1q1IPZkUsQA0-SRQzE84WYuBJ4o46MYm5OEFbC85Lni8MkWuJtL2ZdMLNkyQIVC8rUslL_Miev-a_tIsWXcAOIySH2q9loxLBGT19uSw4yIEhD23CUyzQHsWyTSyYtMm2wlGhRb4FvjjatVm0tmB1YS2BfaeZBRGQ", "width": 4160}], "place_id": "ChIJTwADdHQ1O4gRWHcjTefsvDc", "plus_code": {"compound_code": "8Q99+35 Dearborn, Michigan, USA", "global_code": "86JR8Q99+35"}, "rating": 4.2, "reference": "ChIJTwADdHQ1O4gRWHcjTefsvDc", "types": ["university", "point_of_interest", "establishment"], "user_ratings_total": 105}, {"formatted_address": "1400 Townsend Dr, Houghton, MI 49931, USA", "geometry": {"location": {"lat": 47.11677479999999, "lng": -88.54602179999999}, "viewport": {"northeast": {"lat": 47.1244006, "lng": -88.52754485}, "southwest": {"lat": 47.107485, "lng": -88.56114745}}}, "icon": "https://maps.gstatic.com/mapfiles/place_api/icons/school-71.png", "id": "36204bf9e22cedd78f55e3e9986746cb785aaa89", "name": "Michigan Technological University", "opening_hours": {"open_now": true}, "photos": [{"height": 3280, "html_attributions": ["<a href=\"https://maps.google.com/maps/contrib/106151053772579871690/photos\">Michigan Technological University</a>"], "photo_reference": "CmRaAAAArjewSlt93DEXEz-VsFiBJrHY2Drwl55fLTQf0KIUfl0Nrm71I3Ce7f1VXy4ReFR5yqUZPk6BbzSZVzv_ajA3iDKgfYyKaUa0_ExhFQ68MbMYlWkvFCq5tA8uy5cJVdUgEhCG8F24m1a2J40nKQAXZg9IGhQJGB18XLmP0CAeSnh5ahXzIC3VRw", "width": 4928}], "place_id": "ChIJgXWA0hDIUE0R1RrWV5TK14A", "plus_code": {"compound_code": "4F83+PH Houghton, Michigan, USA", "global_code": "86VH4F83+PH"}, "rating": 4.6, "reference": "ChIJgXWA0hDIUE0R1RrWV5TK14A", "types": ["university", "point_of_interest", "establishment"], "user_ratings_total": 97}, {"formatted_address": "900 Oakwood St, Ypsilanti, MI 48197, USA", "geometry": {"location": {"lat": 42.2506803, "lng": -83.624089}, "viewport": {"northeast": {"lat": 42.26107080000001, "lng": -83.61101125}, "southwest": {"lat": 42.24155199999998, "lng": -83.64189425}}}, "icon": "https://maps.gstatic.com/mapfiles/place_api/icons/school-71.png", "id": "3dc0c07338b6b741c33e5d6c9380de51c60fc24c", "name": "Eastern Michigan University", "photos": [{"height": 5376, "html_attributions": ["<a href=\"https://maps.google.com/maps/contrib/113431548482078905336/photos\">Ryan Malkin</a>"], "photo_reference": "CmRaAAAAvd1nQh1Jc52ru_cpmI8l5JReLRrO601RWIZ1yEZLi_xXDL5EtdA630_m8axHnGMP61uv7XM82pNqgE2fFQu2iN84e1Gswo2fIKJEq3vrL3s3Es7AL_q7uVUEMCrqQc9kEhANdxKB1cWlGLq90oj_85UhGhSuqMTdxyEX-FJtnzLm7x4wAlNgVQ", "width": 3024}], "place_id": "ChIJ9TNoGyupPIgRvbyZPIqSCZU", "plus_code": {"compound_code": "792G+79 Ypsilanti, Michigan, USA", "global_code": "86JR792G+79"}, "rating": 3.5, "reference": "ChIJ9TNoGyupPIgRvbyZPIqSCZU", "types": ["university", "point_of_interest", "establishment"], "user_ratings_total": 148}, {"formatted_address": "4001 W McNichols Rd, Detroit, MI 48221, USA", "geometry": {"location": {"lat": 42.414062, "lng": -83.1379029}, "viewport": {"northeast": {"lat": 42.41937274999999, "lng": -83.13667654999999}, "southwest": {"lat": 42.41002135000001, "lng": -83.14158194999999}}}, "icon": "https://maps.gstatic.com/mapfiles/place_api/icons/school-71.png", "id": "f62bd5abd6517be847cde56aa3752a21643218d2", "name": "University of Detroit Mercy", "photos": [{"height": 4048, "html_attributions": ["<a href=\"https://maps.google.com/maps/contrib/117735184734816930643/photos\">Todd Scott</a>"], "photo_reference": "CmRaAAAAzfQoeMdbqgBPRszj8MvzdZ9TijrXABo9AAdc7BmYo5lrfRb1_hoGvbJVwogbeFWmkmwVWdsJ9J81SGUptFy-ccjvptV0hFeaGvIe-TINXu05G54ERZouOwz68tDqrsweEhC2Zr0RSwB5HTSlMZwzDR4VGhQV-sYsRlDDZhcNfW_QemHVI0Cp0w", "width": 3036}], "place_id": "ChIJb_GQVjvMJIgRX0sz5hazau0", "plus_code": {"compound_code": "CV76+JR Detroit, Michigan, USA", "global_code": "86JRCV76+JR"}, "rating": 3.9, "reference": "ChIJb_GQVjvMJIgRX0sz5hazau0", "types": ["university", "point_of_interest", "establishment"], "user_ratings_total": 48}, {"formatted_address": "318 Meadow Brook Rd, Rochester, MI 48309, USA", "geometry": {"location": {"lat": 42.6679486, "lng": -83.2081632}, "viewport": {"northeast": {"lat": 42.6862753, "lng": -83.18078795000001}, "southwest": {"lat": 42.66183969999999, "lng": -83.23339855}}}, "icon": "https://maps.gstatic.com/mapfiles/place_api/icons/school-71.png", "id": "0ca62b17fd14fa84533ac4ee789094dd67db9082", "name": "Oakland University", "photos": [{"height": 4032, "html_attributions": ["<a href=\"https://maps.google.com/maps/contrib/104126338207181458652/photos\">Saurabh Chaturvedi</a>"], "photo_reference": "CmRaAAAAl2-kOLo8U69bGzVo7UO9Mh9WFJBDerH6ES5gRZR2F692vTJEybmabmwvKsB3ezdGOkF0SoWa6TzhIryq0iQgSPDr2FztJ_-vmCJagjYgKv__V9ER8Yx_i639onMD79sMEhD5fNuuCIJ8uG_AtBPVGAmPGhQwjW5vplNKeOujq9O3xj9IGoSSyA", "width": 3024}], "place_id": "ChIJP1-JSpLqJIgRmUDBbbDvlOk", "plus_code": {"compound_code": "MQ9R+5P Rochester, Michigan, USA", "global_code": "86JRMQ9R+5P"}, "rating": 4.1, "reference": "ChIJP1-JSpLqJIgRmUDBbbDvlOk", "types": ["university", "point_of_interest", "establishment"], "user_ratings_total": 163}, {"formatted_address": "3201 Burton St SE, Grand Rapids, MI 49546, USA", "geometry": {"location": {"lat": 42.9298698, "lng": -85.5892841}, "viewport": {"northeast": {"lat": 42.93095792989272, "lng": -85.58793272010729}, "southwest": {"lat": 42.92825827010728, "lng": -85.59063237989272}}}, "icon": "https://maps.gstatic.com/mapfiles/place_api/icons/school-71.png", "id": "92136f4a0325aca3b49521d60931637c6610dbd8", "name": "Calvin College", "opening_hours": {"open_now": true}, "photos": [{"height": 2848, "html_attributions": ["<a href=\"https://maps.google.com/maps/contrib/106383469655842556799/photos\">Calvin College</a>"], "photo_reference": "CmRaAAAApjFm41HNQWkibjAktzs7gZCv-usNAPjhmA06_oHufDNlRmvDBJgbi3DyKO7bOK244NRnfN8auegp1c2wU0Av0hGqMJVk6QQFLBRAB8Hjig8un2e_4us2BOzxsEsB74cWEhARPC4IuBbWp4VF_jH8KHr3GhSE1r4QtJzL-C1oUTBFUemrITPH5Q", "width": 4288}], "place_id": "ChIJVylN1FtNGIgRgqHyhtrBVp0", "plus_code": {"compound_code": "WCH6+W7 Grand Rapids, Michigan, USA", "global_code": "86JPWCH6+W7"}, "rating": 4.3, "reference": "ChIJVylN1FtNGIgRgqHyhtrBVp0", "types": ["university", "point_of_interest", "establishment"], "user_ratings_total": 87}, {"formatted_address": "8975 Old 31, Berrien Springs, MI 49104, USA", "geometry": {"location": {"lat": 41.9646127, "lng": -86.35946609999999}, "viewport": {"northeast": {"lat": 41.97024579999999, "lng": -86.34636454999999}, "southwest": {"lat": 41.94771339999999, "lng": -86.36787674999998}}}, "icon": "https://maps.gstatic.com/mapfiles/place_api/icons/school-71.png", "id": "7bfa0b0eee501a6009e295da2afe55f330c68feb", "name": "Andrews University", "photos": [{"height": 1365, "html_attributions": ["<a href=\"https://maps.google.com/maps/contrib/105852434964717506665/photos\">Andrews University</a>"], "photo_reference": "CmRaAAAAAUXNgQPmhmpvss347RhHVmeuUgx8B1f6lckjiJDm1OspmsgoFV3_9C5Mn73NTIakQttKSObf2bXNKuc-feX1yawu__yW3OMkTZRRBfrevSYHK7lfQd_vrRkUFn5oQreGEhDy7DokPToe3gvoWFrulG5ZGhSun13voSSVZZX1cyIjJIek02nzhA", "width": 2048}], "place_id": "ChIJXWYs8D7REIgR2-8LEi1IOMI", "plus_code": {"compound_code": "XJ7R+R6 Berrien Springs, Berrien Township, MI, USA", "global_code": "86HMXJ7R+R6"}, "rating": 4.3, "reference": "ChIJXWYs8D7REIgR2-8LEi1IOMI", "types": ["university", "point_of_interest", "establishment"], "user_ratings_total": 117}, {"formatted_address": "141 E 12th St, Holland, MI 49423, USA", "geometry": {"location": {"lat": 42.7871797, "lng": -86.1023574}, "viewport": {"northeast": {"lat": 42.78865382989272, "lng": -86.10039867010728}, "southwest": {"lat": 42.78595417010727, "lng": -86.10309832989273}}}, "icon": "https://maps.gstatic.com/mapfiles/place_api/icons/school-71.png", "id": "dcca0c28db3ed7331dff55d442dbe563b7654995", "name": "Hope College", "opening_hours": {"open_now": true}, "photos": [{"height": 5083, "html_attributions": ["<a href=\"https://maps.google.com/maps/contrib/101787552842821553400/photos\">Hope College</a>"], "photo_reference": "CmRaAAAAaQmSalwq1Ml1taBN9GQ0rNkkKwaDpkZ3K0gs-blumaZMYMDFqjW0F-8_pkqRFEUFdrbC40vjNl67T9uzw80PdTH_esWmfucFAHIm084ZYmrWJNkcZw323qWH5KYrP3Y2EhDIINje-yssGNENL4OU5YQiGhRu7slJwHy2vZ5q61sdAsMz4Qml6w", "width": 7093}], "place_id": "ChIJU9jdXaXyGYgRiRgjUXF0NXQ", "plus_code": {"compound_code": "QVPX+V3 Holland, Michigan, USA", "global_code": "86JMQVPX+V3"}, "rating": 4.5, "reference": "ChIJU9jdXaXyGYgRiRgjUXF0NXQ", "types": ["university", "point_of_interest", "establishment"], "user_ratings_total": 46}, {"formatted_address": "611 E Porter St, Albion, MI 49224, USA", "geometry": {"location": {"lat": 42.2440064, "lng": -84.7451775}, "viewport": {"northeast": {"lat": 42.24525032989273, "lng": -84.74382782010727}, "southwest": {"lat": 42.24255067010728, "lng": -84.74652747989272}}}, "icon": "https://maps.gstatic.com/mapfiles/place_api/icons/school-71.png", "id": "00f48a38516c7cffb6702aa2be6cf084657090b6", "name": "Albion College", "photos": [{"height": 2988, "html_attributions": ["<a href=\"https://maps.google.com/maps/contrib/109807134368022534223/photos\">Cameron Duffield</a>"], "photo_reference": "CmRaAAAAbz5cHaFR0JaCn06uLy25NhN6_VAsCjgeShtYvDyH11nj78Y_aj2sXFg5t3fOGWVO6Ku23JRwPi4NXpkR-jpvLuW6UIkwh_4ghK3xpcMs-U9kk8BK-YvH_NZTohtk2FWUEhA3G3wSZ8Pb4tUuMtiAEzX5GhSE3ZhM338izkFL0E932FfioDrO3A", "width": 5312}], "place_id": "ChIJB6ux9w9FPYgRWj5Ptc84xTk", "plus_code": {"compound_code": "67V3+JW Albion, Michigan, USA", "global_code": "86JQ67V3+JW"}, "rating": 4.4, "reference": "ChIJB6ux9w9FPYgRWj5Ptc84xTk", "types": ["university", "point_of_interest", "establishment"], "user_ratings_total": 25}, {"formatted_address": "1201 S State St, Big Rapids, MI 49307, USA", "geometry": {"location": {"lat": 43.6834099, "lng": -85.4841782}, "viewport": {"northeast": {"lat": 43.70126165000001, "lng": -85.46576169999999}, "southwest": {"lat": 43.66856624999999, "lng": -85.5120841}}}, "icon": "https://maps.gstatic.com/mapfiles/place_api/icons/school-71.png", "id": "1c8dad9eb146e66892811f08411d25f7f2e8a57d", "name": "Ferris State University", "photos": [{"height": 2688, "html_attributions": ["<a href=\"https://maps.google.com/maps/contrib/106406857786033062213/photos\">A Google User</a>"], "photo_reference": "CmRaAAAACJoBQvZI3uTywN0iOSLSRk7dNnLz2AyAqVaQIjjHs2tHvj9ukLbCYE0ZTqBEBo26REQU5AjcRHPicwYrLCrSbgWQcX-9_vp8yv4AzRSnJrlKzar3uGpxhYgvBI8UYoJGEhC5p5W4STejIW5wXe_-L3AqGhRGyAJ7_EQMfnelowQZFmXqnCE69A", "width": 1512}], "place_id": "ChIJ0Zwj5CLTGIgRkeQ1OYnoEaU", "plus_code": {"compound_code": "MGM8+98 Big Rapids, Michigan, USA", "global_code": "86MPMGM8+98"}, "rating": 4, "reference": "ChIJ0Zwj5CLTGIgRkeQ1OYnoEaU", "types": ["university", "point_of_interest", "establishment"], "user_ratings_total": 90}, {"formatted_address": "1401 Presque Isle Ave, Marquette, MI 49855, USA", "geometry": {"location": {"lat": 46.55960320000001, "lng": -87.4044868}, "viewport": {"northeast": {"lat": 46.57362104999999, "lng": -87.3884769}, "southwest": {"lat": 46.54967885000001, "lng": -87.4200669}}}, "icon": "https://maps.gstatic.com/mapfiles/place_api/icons/school-71.png", "id": "a8ca71a6e730160032dc5ac4e14f56cf20127248", "name": "Northern Michigan University", "photos": [{"height": 2250, "html_attributions": ["<a href=\"https://maps.google.com/maps/contrib/118103356613376381148/photos\">Adam Bower</a>"], "photo_reference": "CmRaAAAAuelPvYuwG5-77mR8XOUlhuQNGqVOlojyZYKe1rq8QGN6OnFSK1tXgDHUoO5yEpFGSekEiLccLL52t2_1Bfc4-IXFZVB-KVwgh_-gB9CkOtbTniHzAJw44SupWX3ZGXOjEhAtAu0Qw89QizDfZqjncKGZGhQYX9AAEjAAk-ZwHZHfyCYA5_s2ww", "width": 4000}], "place_id": "ChIJP0UDPj7fUU0RQCVEBy3riMA", "plus_code": {"compound_code": "HH5W+R6 Marquette, Marquette Township, MI, USA", "global_code": "86RJHH5W+R6"}, "rating": 4, "reference": "ChIJP0UDPj7fUU0RQCVEBy3riMA", "types": ["university", "point_of_interest", "establishment"], "user_ratings_total": 75}, {"formatted_address": "303 E Kearsley St, Flint, MI 48502, USA", "geometry": {"location": {"lat": 43.0194791, "lng": -83.6894611}, "viewport": {"northeast": {"lat": 43.02654965, "lng": -83.68150075}, "southwest": {"lat": 43.01369424999999, "lng": -83.69755535}}}, "icon": "https://maps.gstatic.com/mapfiles/place_api/icons/school-71.png", "id": "0faa53688a9c879af31f9be4394c84d27af07fdd", "name": "University of Michigan-Flint", "photos": [{"height": 2448, "html_attributions": ["<a href=\"https://maps.google.com/maps/contrib/114635386287934318875/photos\">Marta Wyngaard</a>"], "photo_reference": "CmRaAAAArERAoiNxDfI8MEwgdd4dRpWcO4p2BUxY0StK0HgU0D8GQUB_M7EIH4qUjmnkBukzgMXDVG9r24vC6iOCklJYvmYyuTOwNUoLAn4e4b1N2Sme3rU5fCrZbfOm-Znr_JFyEhDGD9nAAABYYfucmixOCSBVGhQMj3j_c6mgo41inbfQ9dDR2YcI5w", "width": 3264}], "place_id": "ChIJJ5hdwheCI4gRDI7J3JarzfU", "plus_code": {"compound_code": "2896+Q6 Flint, Michigan, USA", "global_code": "86MR2896+Q6"}, "rating": 4.1, "reference": "ChIJJ5hdwheCI4gRDI7J3JarzfU", "types": ["university", "point_of_interest", "establishment"], "user_ratings_total": 69}, {"formatted_address": "106 E Main St, Spring Arbor, MI 49283, USA", "geometry": {"location": {"lat": 42.2078734, "lng": -84.5563208}, "viewport": {"northeast": {"lat": 42.21450500000001, "lng": -84.55015630000001}, "southwest": {"lat": 42.20161940000001, "lng": -84.56382629999999}}}, "icon": "https://maps.gstatic.com/mapfiles/place_api/icons/school-71.png", "id": "f9914b87b16aa1cb089a646db725f8b2306778b1", "name": "Spring Arbor University", "photos": [{"height": 1060, "html_attributions": ["<a href=\"https://maps.google.com/maps/contrib/110500873895783676836/photos\">Manar Masry</a>"], "photo_reference": "CmRaAAAAegXwHoO50Tt7rP-SB2ZNz7SSBszXQJu3pI53CU6WaL--e8rZ_tFKf3JgbSGUOnNIuSati-ud2du3PUw1PfbXWWgaUCqDeX_tmDArk5hIYUAXVSoSyAi2FdyumXRCUtVAEhDHNxxOJuwku-cFH4FdBQ1ZGhQuX9laJY1JmcyYs-z9RrsWz2niLQ", "width": 1059}], "place_id": "ChIJF1tbDNC3JIgRzN6L7WIQAb0", "plus_code": {"compound_code": "6C5V+4F Spring Arbor, Spring Arbor Township, MI, USA", "global_code": "86JQ6C5V+4F"}, "rating": 3.6, "reference": "ChIJF1tbDNC3JIgRzN6L7WIQAb0", "types": ["university", "point_of_interest", "establishment"], "user_ratings_total": 22}, {"formatted_address": "1200 Academy St, Kalamazoo, MI 49006, USA", "geometry": {"location": {"lat": 42.290035, "lng": -85.598145}, "viewport": {"northeast": {"lat": 42.29158427989272, "lng": -85.59640117010727}, "southwest": {"lat": 42.28888462010728, "lng": -85.59910082989272}}}, "icon": "https://maps.gstatic.com/mapfiles/place_api/icons/school-71.png", "id": "659b1f2b98790cd578020249c5e1c7b68c5acf86", "name": "Kalamazoo College", "opening_hours": {"open_now": true}, "photos": [{"height": 825, "html_attributions": ["<a href=\"https://maps.google.com/maps/contrib/117486689385004189122/photos\">Kalamazoo College</a>"], "photo_reference": "CmRaAAAAQe9DWtpSx3wO2zqmIUTXXI4Re7ynLhN3PnXg34NLCktjaj0n-SaJiPGwIlpXDwMZBIKlFZ0wDNzLvUo678c-OffJaOieobPCGLthsDwADhrN3c2wgAkL11MBelD7oROJEhB1k4QnlvYo_xZrXbdgQkiDGhQS9PsmIJnVhphcZi332_rVhQtpdQ", "width": 1653}], "place_id": "ChIJ5yGKLV6dF4gRGUDjG8roZhQ", "plus_code": {"compound_code": "7CR2+2P Kalamazoo, Michigan, USA", "global_code": "86JP7CR2+2P"}, "rating": 4.2, "reference": "ChIJ5yGKLV6dF4gRGUDjG8roZhQ", "types": ["university", "point_of_interest", "establishment"], "user_ratings_total": 39}, {"formatted_address": "1700 University Ave, Flint, MI 48504, USA", "geometry": {"location": {"lat": 43.0115468, "lng": -83.7138531}, "viewport": {"northeast": {"lat": 43.0178574, "lng": -83.70609420000001}, "southwest": {"lat": 43.008129, "lng": -83.7237534}}}, "icon": "https://maps.gstatic.com/mapfiles/place_api/icons/school-71.png", "id": "6a15be83488ef864355098daa3a8032dce37ac53", "name": "Kettering University", "photos": [{"height": 3024, "html_attributions": ["<a href=\"https://maps.google.com/maps/contrib/108893727913425779202/photos\">Arjun S Raju</a>"], "photo_reference": "CmRaAAAAdUuy572Z7ELwaeL4LbNAUSz9OMVRkH2ZylxycB5wFYdeD7TYSpwNml-1zqg0MHRLah9g0DrFUtXfZ5rPALuogtaiWmHm6KYSpN3ojf6BRGtSBsUqD7rVlw1wxgMW_1pnEhAGeJ7IMuwo6ikD85tHA4liGhQ9p_jkAWie-5HtVmcxtGopdz8dkg", "width": 4032}], "place_id": "ChIJLx7Nx2SCI4gRzW8R94I3pEw", "plus_code": {"compound_code": "276P+JF Flint, Michigan, USA", "global_code": "86MR276P+JF"}, "rating": 4.3, "reference": "ChIJLx7Nx2SCI4gRzW8R94I3pEw", "types": ["university", "point_of_interest", "establishment"], "user_ratings_total": 60}, {"formatted_address": "36600 Schoolcraft Rd, Livonia, MI 48150, USA", "geometry": {"location": {"lat": 42.3857893, "lng": -83.4062995}, "viewport": {"northeast": {"lat": 42.40145675000002, "lng": -83.39766655}, "southwest": {"lat": 42.37587615, "lng": -83.41692674999999}}}, "icon": "https://maps.gstatic.com/mapfiles/place_api/icons/school-71.png", "id": "392e5135816111b744573d477b2f41d032c5f44e", "name": "Madonna University", "opening_hours": {"open_now": true}, "photos": [{"height": 1197, "html_attributions": ["<a href=\"https://maps.google.com/maps/contrib/100286096109442234369/photos\">A Google User</a>"], "photo_reference": "CmRaAAAADeSzQ3_yhvVoSPb0dV-kMi91FsykQVr7RSvK92peyjZIGWD4GHCtYIFgr2GheeZ-KsGaE6sLaFzeVTxUgED4se67vilDl-wZ_F5Pj933MFGeqsG_LETSicak_z0B0qJcEhCDwo6gjazJWXfkSJ9MH_d1GhRxjiAovW80EopCShei4NhbZmJCfw", "width": 1800}], "place_id": "ChIJk8wQu5GyJIgRdruIpXLgLyo", "plus_code": {"compound_code": "9HPV+8F Livonia, Michigan, USA", "global_code": "86JR9HPV+8F"}, "rating": 3.7, "reference": "ChIJk8wQu5GyJIgRdruIpXLgLyo", "types": ["university", "point_of_interest", "establishment"], "user_ratings_total": 45}, {"formatted_address": "614 W Superior St, Alma, MI 48801, USA", "geometry": {"location": {"lat": 43.3807565, "lng": -84.6728043}, "viewport": {"northeast": {"lat": 43.3816316, "lng": -84.67146617010728}, "southwest": {"lat": 43.3781312, "lng": -84.67416582989273}}}, "icon": "https://maps.gstatic.com/mapfiles/place_api/icons/school-71.png", "id": "ed989f3b5bff1a29444f97331f4c308ea1091d30", "name": "Alma College", "opening_hours": {"open_now": true}, "photos": [{"height": 1200, "html_attributions": ["<a href=\"https://maps.google.com/maps/contrib/117269386354679387871/photos\">Justin Edgar</a>"], "photo_reference": "CmRaAAAAeCfpkl04h_ovvehNYkA3xdX17Xkqa63PFig2hByKt_1UtEyDyqYf3a4zVDaPrGX2-IRkXlgOscCUbtYVxH_BUXM2OWlwpk7HF6K6hycWc9vLiV_3d3Mb9ai7tevYrmdnEhBVi5gLH5P3siXhQjpIiqJkGhR5GxQSoMi8EP3gyuMt6Sy3fh2ATg", "width": 1600}], "place_id": "ChIJ2UjgGpUUIogRnXJpXLt0dqM", "plus_code": {"compound_code": "98JG+8V Alma, Michigan, USA", "global_code": "86MQ98JG+8V"}, "rating": 4, "reference": "ChIJ2UjgGpUUIogRnXJpXLt0dqM", "types": ["university", "point_of_interest", "establishment"], "user_ratings_total": 43}, {"formatted_address": "21000 W 10 Mile Rd, Southfield, MI 48075, USA", "geometry": {"location": {"lat": 42.4755011, "lng": -83.24979669999999}, "viewport": {"northeast": {"lat": 42.4825951, "lng": -83.24395559999999}, "southwest": {"lat": 42.46948069999999, "lng": -83.25715559999999}}}, "icon": "https://maps.gstatic.com/mapfiles/place_api/icons/school-71.png", "id": "0855c882887134bc248ba77663111550bd228792", "name": "Lawrence Technological University", "photos": [{"height": 4032, "html_attributions": ["<a href=\"https://maps.google.com/maps/contrib/117021601745809952835/photos\">Anand Chaudhari</a>"], "photo_reference": "CmRaAAAANlKDOOW_albia3hTh71ep4oE5amUoOKI2xLop4MQo1JBn2SaOuzCUTnb2jBWX7oPVumVeh9bbn5L0Nz48UGBE6CYtzvmpJNnrvb-eD6WuE3i9wIxHTQqJKiZYQtnfgvyEhAtoamh2JKWyxYAix-EgiGWGhSqyNQ6d8MStd9FrJzRmPmpgzmarA", "width": 3024}], "place_id": "ChIJMX5McinIJIgR1yFZQAfXcyU", "plus_code": {"compound_code": "FQG2+63 Southfield, Michigan, USA", "global_code": "86JRFQG2+63"}, "rating": 4.2, "reference": "ChIJMX5McinIJIgR1yFZQAfXcyU", "types": ["political", "university", "point_of_interest", "establishment"], "user_ratings_total": 68}, {"formatted_address": "1700 Fulton St E, Grand Rapids, MI 49506, USA", "geometry": {"location": {"lat": 42.96032779999999, "lng": -85.6285917}, "viewport": {"northeast": {"lat": 42.96153667989272, "lng": -85.62712867010728}, "southwest": {"lat": 42.95883702010727, "lng": -85.62982832989273}}}, "icon": "https://maps.gstatic.com/mapfiles/place_api/icons/school-71.png", "id": "673c4c7e6d9c72802416d896dc741e936e70efe8", "name": "Aquinas College", "photos": [{"height": 2048, "html_attributions": ["<a href=\"https://maps.google.com/maps/contrib/108145073613445307632/photos\">Tony Pelak</a>"], "photo_reference": "CmRaAAAA-TYmnzpAIs_g242z1URjoAtyaGL7vw2vssLjcx-3fattJicrEgxF-Q4H23XZcAjHbnCatuuqp6HvBeEDd-79fC3wijpjzkapKFBwPwwisLT2SgHspYGiHUhTVYyGLxtsEhAEm_CqV0MsxBG0KfPBLD6rGhS8l1XRO4tmLBvel03WQmdfx0GAsA", "width": 1536}], "place_id": "ChIJkeocbz6tGYgREnAXz3GbiXs", "plus_code": {"compound_code": "X96C+4H Grand Rapids, Michigan, USA", "global_code": "86JPX96C+4H"}, "rating": 4.2, "reference": "ChIJkeocbz6tGYgREnAXz3GbiXs", "types": ["university", "point_of_interest", "establishment"], "user_ratings_total": 29}, {"formatted_address": "110 S Madison St, Adrian, MI 49221, USA", "geometry": {"location": {"lat": 41.8985832, "lng": -84.05917389999999}, "viewport": {"northeast": {"lat": 41.89994122989273, "lng": -84.05744632010727}, "southwest": {"lat": 41.89724157010728, "lng": -84.06014597989271}}}, "icon": "https://maps.gstatic.com/mapfiles/place_api/icons/school-71.png", "id": "32de32d3d711fd649681c9df3febee69d7f7968c", "name": "Adrian College", "opening_hours": {"open_now": true}, "photos": [{"height": 1365, "html_attributions": ["<a href=\"https://maps.google.com/maps/contrib/115319140454515431959/photos\">Adrian College</a>"], "photo_reference": "CmRaAAAAgHX6LkCpTgQ9_ZovhyWHK4K00AjoCTeUBaSwfyHXVcILCWMdSSWgE8oFxzdWwz0dwBGfXXzWyYPG5LCOLqlGsp4coUGCN3FMJ5cMwOAUyLaZzx1mLqtv44S6TPOqHVGKEhAZfawxUiwA5Kf2ugoOO0ejGhTFoclBcmHnG1K9v5eEW5in3DGtYg", "width": 2048}], "place_id": "ChIJ_aB5IkzwPIgRl8bre6ALrsE", "plus_code": {"compound_code": "VWXR+C8 Adrian, Adrian Township, MI, USA", "global_code": "86HQVWXR+C8"}, "rating": 4, "reference": "ChIJ_aB5IkzwPIgRl8bre6ALrsE", "types": ["university", "point_of_interest", "establishment"], "user_ratings_total": 24}, {"formatted_address": "650 W Easterday Ave, Sault Ste. Marie, MI 49783, USA", "geometry": {"location": {"lat": 46.491793, "lng": -84.36387739999999}, "viewport": {"northeast": {"lat": 46.49932795, "lng": -84.35408745000001}, "southwest": {"lat": 46.48263454999999, "lng": -84.37344725}}}, "icon": "https://maps.gstatic.com/mapfiles/place_api/icons/school-71.png", "id": "36d6410e56a684b1492869bc1624063d99471509", "name": "Lake Superior State University", "photos": [{"height": 409, "html_attributions": ["<a href=\"https://maps.google.com/maps/contrib/118071180787181476547/photos\">Lake Superior State University</a>"], "photo_reference": "CmRaAAAAI5iLysUcoErJLS6xQdnmgvLbq8fFt1QLpyL4sk-95z-Xi_N_PtOjkLG5Tpv7LKGSzxTfr2dbBUPh1C4l2-SNyy7D8zJWz3UgGTsE_hgClR9fmq4PgbzGP-igi0xria0nEhDTUds6m-Vbjn4tD7Um_CGTGhRpB1z5v4vkDBc0SmTDTkdOiLC0Zw", "width": 727}], "place_id": "ChIJL4qWeHY5Nk0RU8FM-RSVZSU", "plus_code": {"compound_code": "FJRP+PC Sault Ste. Marie, Michigan, USA", "global_code": "86RQFJRP+PC"}, "rating": 4.4, "reference": "ChIJL4qWeHY5Nk0RU8FM-RSVZSU", "types": ["university", "point_of_interest", "establishment"], "user_ratings_total": 37}], "status": "OK"}, "Pennsylvania": {"html_attributions": [], "next_page_token": "CpQCEAEAAImRuxCrkSGSV7NWqkI-DdA7mKIqFwKGKDmTozi0P2pgyrZ283tIRINfk-MPzcO9vzUPNt4cLZYPndCFZaRfkMCHJZRoqgMl-3T_770JZNvW9Hs7yXuP3G4WQRWau6TITS3ghnOsG5ZiifaSrYUUd1CyLuySa74F_WKfVtRImkx1Pl-c7lT7vY70dpx_7Sb0ptuaSkSjrOpN8u2ALY14wTbchEBbijGtmIgUDCmTegLsC8FFg4OaNmXrpO7odIByu4GKdXHgXZozEC04xUxqUZTkn8wWo4CqrBuuGltYrAy7ZEdMTG1KStbdwhdMyT_Ex7I15H_BuaHSUU71qmwmxfyPMlVo1nA3SSGy8eDj7a8aEhC7P21sq3FXUqgUtEaS50pbGhQDHZ-CBNLQCSyv0NgAOxF42S3CZA", "results": [{"formatted_address": "State College, PA 16801, USA", "geometry": {"location": {"lat": 40.7982133, "lng": -77.8599084}, "viewport": {"northeast": {"lat": 40.83623335000001, "lng": -77.828085}, "southwest": {"lat": 40.78352155, "lng": -77.8871794}}}, "icon": "https://maps.gstatic.com/mapfiles/place_api/icons/school-71.png", "id": "3c090f363862aadb9b9bdf37d5cd458337ae4575", "name": "Penn State University", "photos": [{"height": 1152, "html_attributions": ["<a href=\"https://maps.google.com/maps/contrib/103312667856357934827/photos\">Penn State University</a>"], "photo_reference": "CmRaAAAAmbwT-fnb5aT0T1N0KvUplX0lGwHAuRVjNeltiiczDRKVXEzSepJxnYE4FmmttAnWDtmo2X6N120bn703Pqav_4Kx63L5y9jbAuQ5N_QtXZCDKJSz_MoNtLnJSpIS4pb_EhCB6spG1YpUT2sdMNHVGjoMGhQYkSfzX8eNqqcsxuOhe63UHoiiRg", "width": 1754}], "place_id": "ChIJkQJdfySmzokRaYLkVpuOPq0", "plus_code": {"compound_code": "Q4XR+72 State College, Pennsylvania, USA", "global_code": "87G4Q4XR+72"}, "rating": 4.5, "reference": "ChIJkQJdfySmzokRaYLkVpuOPq0", "types": ["political", "university", "point_of_interest", "establishment"], "user_ratings_total": 584}, {"formatted_address": "Philadelphia, PA 19104, USA", "geometry": {"location": {"lat": 39.9522188, "lng": -75.1932137}, "viewport": {"northeast": {"lat": 39.9595736, "lng": -75.17636419999998}, "southwest": {"lat": 39.94363720000001, "lng": -75.21116380000001}}}, "icon": "https://maps.gstatic.com/mapfiles/place_api/icons/school-71.png", "id": "662ea5061b4211d4ddb843d8397172798ca6a2b1", "name": "University of Pennsylvania", "photos": [{"height": 1824, "html_attributions": ["<a href=\"https://maps.google.com/maps/contrib/113815392849087130851/photos\">Gomer Aquino</a>"], "photo_reference": "CmRaAAAACZLJ5Py7V06o8yMlc8pcvg8_ezNPh06nCYvBCl__845orAwC76VnYg4IHC5SgYfoKk2dqf7vOOm7X-YpaxZRsldVVOVbsuJXLfnu_nGI6m8y9nZG_XCS5JThK7EkhVj6EhCJmzBOCQIuZ_u90gedwpulGhR1B11jnELUG80E6huzakJWduSORA", "width": 2736}], "place_id": "ChIJwcw7f1rGxokRlP7WsqKm6gk", "plus_code": {"compound_code": "XR24+VP Philadelphia, Pennsylvania, USA", "global_code": "87F6XR24+VP"}, "rating": 4.3, "reference": "ChIJwcw7f1rGxokRlP7WsqKm6gk", "types": ["university", "political", "point_of_interest", "establishment"], "user_ratings_total": 499}, {"formatted_address": "4200 Fifth Ave, Pittsburgh, PA 15260, USA", "geometry": {"location": {"lat": 40.4443533, "lng": -79.960835}, "viewport": {"northeast": {"lat": 40.4483029, "lng": -79.9479187}, "southwest": {"lat": 40.43788169999999, "lng": -79.9713615}}}, "icon": "https://maps.gstatic.com/mapfiles/place_api/icons/school-71.png", "id": "f868cf2879ed16c5ca63117d5b5ddcdc4b3667dd", "name": "University of Pittsburgh", "photos": [{"height": 2448, "html_attributions": ["<a href=\"https://maps.google.com/maps/contrib/118358616656884907797/photos\">Bingxin Zhao</a>"], "photo_reference": "CmRaAAAAQzK5D7ndG7ZGNmdoFhWOjtYPYZwU1XXCh44nLbtXi6-W3k8M8uFmF5lRuzBWLSqO0_nJ-45hGH3rzEjnrjkax-xLfI7zxtqXQc4XztJuKGb5OexqoG82SuZi0upUgwGpEhA8dw-OhLPyN4xB5QCkxHhNGhQZ6vbzaoXnsPdrUrXGU2N6_5DjOw", "width": 2448}], "place_id": "ChIJH_Fa2SvyNIgRD60jDbYZ4VI", "plus_code": {"compound_code": "C2VQ+PM Pittsburgh, Pennsylvania, USA", "global_code": "87G2C2VQ+PM"}, "rating": 4.4, "reference": "ChIJH_Fa2SvyNIgRD60jDbYZ4VI", "types": ["university", "political", "point_of_interest", "establishment"], "user_ratings_total": 253}, {"formatted_address": "1801 N Broad St, Philadelphia, PA 19122, USA", "geometry": {"location": {"lat": 39.9811935, "lng": -75.1553512}, "viewport": {"northeast": {"lat": 39.98830709999999, "lng": -75.14757295000001}, "southwest": {"lat": 39.9736563, "lng": -75.16384594999997}}}, "icon": "https://maps.gstatic.com/mapfiles/place_api/icons/school-71.png", "id": "cf88336a12055f576dca676320a7e09f2659fbba", "name": "Temple University", "photos": [{"height": 1096, "html_attributions": ["<a href=\"https://maps.google.com/maps/contrib/109420195658982407183/photos\">\u94b1\u4f73\u6960</a>"], "photo_reference": "CmRaAAAAbE4eB8dDjdcUPHyiikj-mcT2J6NQBbNz3FZt_xYeKe9psphhEZEy6fJrS93Slsc_ktUeNa0oWVaJrCH-k5viUjbTPQbnjVQRNmyh0FsCl2nAHZFr5Iw0K6vPP4fUk6xvEhCZou6F6N_AxEw25U0hhH2EGhSNj2-zmzFwcKvrcS_iukk8SXHWcQ", "width": 1096}], "place_id": "ChIJDzmJJf-3xokR3i50d5pyWAU", "plus_code": {"compound_code": "XRJV+FV Philadelphia, Pennsylvania, USA", "global_code": "87F6XRJV+FV"}, "rating": 4.2, "reference": "ChIJDzmJJf-3xokR3i50d5pyWAU", "types": ["university", "point_of_interest", "establishment"], "user_ratings_total": 282}, {"formatted_address": "27 Memorial Dr W, Bethlehem, PA 18015, USA", "geometry": {"location": {"lat": 40.6048687, "lng": -75.3775187}, "viewport": {"northeast": {"lat": 40.61005074999999, "lng": -75.37135125}, "southwest": {"lat": 40.60314135000001, "lng": -75.38356064999999}}}, "icon": "https://maps.gstatic.com/mapfiles/place_api/icons/school-71.png", "id": "9ec2ba309058248022d7d79edcaec4ec021c6dc2", "name": "Lehigh University", "photos": [{"height": 800, "html_attributions": ["<a href=\"https://maps.google.com/maps/contrib/109775373017740716391/photos\">Lehigh University</a>"], "photo_reference": "CmRaAAAAGkLbbOqqA-ElTsEjveVf0mqNoiFM1uXh6_0MvBvrC0PczXSC9Jxl2yw348GhusryT3exuV8B4nWRqHJSI1XbayEZKvThfZW45JPbB0ja8dXgF8TP6NfTcRz5pSAXeuI2EhCdOuQAsLSjkogBeYr2gTPbGhSdinRZ_DvTYv9tgdVVFm_kYWqV-g", "width": 1200}], "place_id": "ChIJ5WpcfWc-xIkRILNvZO3psF0", "plus_code": {"compound_code": "JJ3C+WX Bethlehem, Pennsylvania, USA", "global_code": "87G6JJ3C+WX"}, "rating": 4.5, "reference": "ChIJ5WpcfWc-xIkRILNvZO3psF0", "types": ["university", "point_of_interest", "establishment"], "user_ratings_total": 156}, {"formatted_address": "800 Lancaster Ave, Villanova, PA 19085, USA", "geometry": {"location": {"lat": 40.037056, "lng": -75.34358}, "viewport": {"northeast": {"lat": 40.0444005, "lng": -75.3306819}, "southwest": {"lat": 40.0277609, "lng": -75.3534751}}}, "icon": "https://maps.gstatic.com/mapfiles/place_api/icons/school-71.png", "id": "cae8d22f7780aa890310fbf06f1f3b88f5c52b0f", "name": "Villanova University", "photos": [{"height": 4032, "html_attributions": ["<a href=\"https://maps.google.com/maps/contrib/111798943603195020990/photos\">Yibin Feng</a>"], "photo_reference": "CmRaAAAAeTy3GJ6QP6gwDwcVbGWYBajzkoH-gNu4_aLmao8V5YkhCUqRxXqDSDp3OIm6BcHuQ7ozCtDmWHvTlzf9swK-PvWa1zDp5m0CIH4keaV14_uDDuNiqwu0JPgX0P-QKwJiEhD_Yt2A2gdaW8N6FyaVXdJtGhSSaoMUr2XLTuX0Vx8fDbuNFy115w", "width": 3024}], "place_id": "ChIJDQ3h4FiVxokRTNPv3loGnqU", "plus_code": {"compound_code": "2MP4+RH Villanova, Radnor Township, PA, USA", "global_code": "87G62MP4+RH"}, "rating": 4.1, "reference": "ChIJDQ3h4FiVxokRTNPv3loGnqU", "types": ["university", "point_of_interest", "establishment"], "user_ratings_total": 238}, {"formatted_address": "3141 Chestnut St, Philadelphia, PA 19104, USA", "geometry": {"location": {"lat": 39.9566127, "lng": -75.18994409999999}, "viewport": {"northeast": {"lat": 39.96276134999999, "lng": -75.182013}, "southwest": {"lat": 39.95252875000001, "lng": -75.1947186}}}, "icon": "https://maps.gstatic.com/mapfiles/place_api/icons/school-71.png", "id": "d28b3a5d55f961033c32bdfef880cef141a2ed4b", "name": "Drexel University", "photos": [{"height": 3496, "html_attributions": ["<a href=\"https://maps.google.com/maps/contrib/110030259199445969945/photos\">Ahnaf An Nafee</a>"], "photo_reference": "CmRaAAAAtr4J57Fsa_5x4jChki4C3voouGlwg4IImglc1YrVPSI5R-OJpvRr3Yz4wd9od3ieFzj7565h2myXFHaDbDifg7Nvb-ZLDAbmwt4Ui1R9MES2BT6CERsCDXpoEkTT0u1pEhDQ-znVlmxKr3p_b0ILHlFWGhR3V_dqL3EsmWSIYCFad3i0TPmySg", "width": 4656}], "place_id": "ChIJKcBHSE7GxokR8DA8BOQt8w4", "plus_code": {"compound_code": "XR46+J2 Philadelphia, Pennsylvania, USA", "global_code": "87F6XR46+J2"}, "rating": 3.5, "reference": "ChIJKcBHSE7GxokR8DA8BOQt8w4", "types": ["university", "point_of_interest", "establishment"], "user_ratings_total": 279}, {"formatted_address": "600 Forbes Ave, Pittsburgh, PA 15282, USA", "geometry": {"location": {"lat": 40.4374516, "lng": -79.99058629999999}, "viewport": {"northeast": {"lat": 40.44044629999999, "lng": -79.98292375}, "southwest": {"lat": 40.43337830000001, "lng": -79.99754314999998}}}, "icon": "https://maps.gstatic.com/mapfiles/place_api/icons/school-71.png", "id": "6547ef47c5b31321127f61c6a7fd641a2878e53e", "name": "Duquesne University", "opening_hours": {"open_now": true}, "photos": [{"height": 1060, "html_attributions": ["<a href=\"https://maps.google.com/maps/contrib/114066662944485251138/photos\">Duquesne University</a>"], "photo_reference": "CmRaAAAAyXWKEHpT6SQXebJX1mDPSRdZSWuP1pTpEvIOB9XXWTaCaTGOkw31-GgOTV6yZcSRC_0z_O9VpuWFSCJU0gZJ2x613yLA0SUYxNG2es0ca0lihgLwRA-4FdSbgWbf7QUdEhCWyMxhqTdQ6QrB9zuyoXeZGhTSJI9wPc1zpwk5d6rJDNGxh2ozbQ", "width": 1600}], "place_id": "ChIJa3PD-1vxNIgRZWumPoCHiMk", "plus_code": {"compound_code": "C2P5+XQ Pittsburgh, Pennsylvania, USA", "global_code": "87G2C2P5+XQ"}, "rating": 4.2, "reference": "ChIJa3PD-1vxNIgRZWumPoCHiMk", "types": ["university", "political", "point_of_interest", "establishment"], "user_ratings_total": 105}, {"formatted_address": "701 Moore Ave, Lewisburg, PA 17837, USA", "geometry": {"location": {"lat": 40.9547721, "lng": -76.885076}, "viewport": {"northeast": {"lat": 40.9571346, "lng": -76.8836754}, "southwest": {"lat": 40.95082860000002, "lng": -76.8892778}}}, "icon": "https://maps.gstatic.com/mapfiles/place_api/icons/school-71.png", "id": "97102f177f894146c71b3979abb4172ff37f50a3", "name": "Bucknell University", "photos": [{"height": 863, "html_attributions": ["<a href=\"https://maps.google.com/maps/contrib/100845480591523254724/photos\">Aurimas Liutikas</a>"], "photo_reference": "CmRaAAAAOVd2SCfue4J6iBZSmB-OANO0Zm4SuRH1O9-tr2-ISO84cIdgIxv96hl8O2BgP8d0tsMNi-fFUE30UYelqCfasbEQF8aSJKw_pZ8_zNVFZufoGDjc7ulm-Zd84wImfcpnEhCdavT4ut3BOoBAVpxSvAC6GhSZy8RhD89uqaymO1ocHfN4uFpwcg", "width": 2048}], "place_id": "ChIJ3U7mfLwTz4kR-em5PjbPbPM", "plus_code": {"compound_code": "X437+WX Lewisburg, Pennsylvania, USA", "global_code": "87G5X437+WX"}, "rating": 4.1, "reference": "ChIJ3U7mfLwTz4kR-em5PjbPbPM", "types": ["university", "point_of_interest", "establishment"], "user_ratings_total": 73}, {"formatted_address": "101 N Merion Ave, Bryn Mawr, PA 19010, USA", "geometry": {"location": {"lat": 40.0281065, "lng": -75.3152341}, "viewport": {"northeast": {"lat": 40.03539070000001, "lng": -75.31259865}, "southwest": {"lat": 40.02006869999999, "lng": -75.31873445}}}, "icon": "https://maps.gstatic.com/mapfiles/place_api/icons/school-71.png", "id": "70a4dbaca67943645aa026c8d5a781edd5a6a9b0", "name": "Bryn Mawr College", "photos": [{"height": 2988, "html_attributions": ["<a href=\"https://maps.google.com/maps/contrib/100038011952922400065/photos\">Keith Kellam</a>"], "photo_reference": "CmRaAAAAl63UPwrDcqOxacvPDvJ-m7znFhj2vKdCGZ2MrFJIseo-C9G7KpoSWdwsjXziMYaZzKBGPpF_rJq9qQUBtsUNmyivvzpHw1wyiCw1ckMj6gT0SEcB6AGyh_R-g3wNk07dEhBiXwMeNgInFUITWexKFH3MGhST6_R6yugLDBYL5wYk0JJWqgATeg", "width": 5312}], "place_id": "ChIJazx-cI2_xokRROA-Ik6hyk0", "plus_code": {"compound_code": "2MHM+6W Bryn Mawr, Lower Merion Township, PA, USA", "global_code": "87G62MHM+6W"}, "rating": 4.1, "reference": "ChIJazx-cI2_xokRROA-Ik6hyk0", "types": ["university", "point_of_interest", "establishment"], "user_ratings_total": 58}, {"formatted_address": "730 High St, Easton, PA 18042, USA", "geometry": {"location": {"lat": 40.6986202, "lng": -75.2087298}, "viewport": {"northeast": {"lat": 40.70026462989273, "lng": -75.20757702010728}, "southwest": {"lat": 40.69756497010729, "lng": -75.21027667989273}}}, "icon": "https://maps.gstatic.com/mapfiles/place_api/icons/school-71.png", "id": "4c51727deb6549c095625e77fbb7be605cdcd35a", "name": "Lafayette College", "photos": [{"height": 2268, "html_attributions": ["<a href=\"https://maps.google.com/maps/contrib/102913299200109729332/photos\">Rich Price</a>"], "photo_reference": "CmRaAAAA1NTEww_wF-GGBdKZujfq0B-PMMaHCdduoV3QibB3szrB6nW-sEgTSotJ1pZkciEh-Wr2DoX73bpdeF_MhTLuTS6SqF_CdStoXQgX8Z6sTIpaMMciXvvPzTQBGd-trPLgEhDIDRZGmZ12yXeqO37KJAMMGhSeQ7TkNwxYxXesKw_YIGU_SVNYqQ", "width": 4032}], "place_id": "ChIJAZll2E5sxIkRmWtHcAi0le4", "plus_code": {"compound_code": "MQXR+CG Easton, Pennsylvania, USA", "global_code": "87G6MQXR+CG"}, "rating": 4.2, "reference": "ChIJAZll2E5sxIkRmWtHcAi0le4", "types": ["university", "point_of_interest", "establishment"], "user_ratings_total": 53}, {"formatted_address": "500 College Ave, Swarthmore, PA 19081, USA", "geometry": {"location": {"lat": 39.9040349, "lng": -75.3523171}, "viewport": {"northeast": {"lat": 39.91237929999998, "lng": -75.34878069999999}, "southwest": {"lat": 39.8939221, "lng": -75.3553491}}}, "icon": "https://maps.gstatic.com/mapfiles/place_api/icons/school-71.png", "id": "3806be8a54bd21a5774f9a7a613336ba009c2042", "name": "Swarthmore College", "photos": [{"height": 3120, "html_attributions": ["<a href=\"https://maps.google.com/maps/contrib/104492063452742964836/photos\">John Ogden</a>"], "photo_reference": "CmRaAAAAqj6Dryq-zkkNnnw8VgZ4wOTFnlw0mCret-_5ykPKBJcZiDkbzKHTgg77vYJyGuwClqpKuO0ko-dVA8JmOtl1AHkpEv7a4H5hCTWDlL5zYaSRgLt7uc-MJQL6vDGZqD2AEhA2TXfaVf4MNhRg-GPxMDDoGhRsl0E0Ls2Nm36-xfwc5vNusfYPkQ", "width": 4160}], "place_id": "ChIJj7PqbtLpxokRK7IyQMDWAHs", "plus_code": {"compound_code": "WJ3X+J3 Swarthmore, Pennsylvania, USA", "global_code": "87F6WJ3X+J3"}, "rating": 4.4, "reference": "ChIJj7PqbtLpxokRK7IyQMDWAHs", "types": ["university", "point_of_interest", "establishment"], "user_ratings_total": 86}, {"formatted_address": "370 Lancaster Ave, Haverford, PA 19041, USA", "geometry": {"location": {"lat": 40.0093478, "lng": -75.305656}, "viewport": {"northeast": {"lat": 40.01068607989272, "lng": -75.30433842010729}, "southwest": {"lat": 40.00798642010728, "lng": -75.30703807989272}}}, "icon": "https://maps.gstatic.com/mapfiles/place_api/icons/school-71.png", "id": "fe3adcf98037e7ca0e7c33ceb141a8aae3c11f8a", "name": "Haverford College", "photos": [{"height": 1080, "html_attributions": ["<a href=\"https://maps.google.com/maps/contrib/109910852379614878272/photos\">Terry Phan</a>"], "photo_reference": "CmRaAAAAO6Mx9RjJJm84QPiD1w9wUMbL_mtLv7qUeoOec3lVTcqhsUgHCCB0P_vYYF2t0K-kq3uMkAhOpXO2-_useEbQwVLQY-gJhyAGZUS8khXKQaKz5fLCwmlDMfB6lTqPzf8lEhAE5EXMqzhe1Eg6bJWsb2DmGhTGW47BvzYhPLwmzFE1CNbJ_KYbdw", "width": 1920}], "place_id": "ChIJJS6VzuvGxokRWTnyFDVOAEQ", "plus_code": {"compound_code": "2M5V+PP Haverford, Pennsylvania, USA", "global_code": "87G62M5V+PP"}, "rating": 4.3, "reference": "ChIJJS6VzuvGxokRWTnyFDVOAEQ", "types": ["university", "point_of_interest", "establishment"], "user_ratings_total": 52}, {"formatted_address": "300 N Washington St, Gettysburg, PA 17325, USA", "geometry": {"location": {"lat": 39.8356944, "lng": -77.2356339}, "viewport": {"northeast": {"lat": 39.83780145000001, "lng": -77.22888375}, "southwest": {"lat": 39.83436644999999, "lng": -77.23788394999998}}}, "icon": "https://maps.gstatic.com/mapfiles/place_api/icons/school-71.png", "id": "1b7a6c483c7a5ec46cf5033269a1911d9fb382f9", "name": "Gettysburg College", "photos": [{"height": 1365, "html_attributions": ["<a href=\"https://maps.google.com/maps/contrib/112420795855594526159/photos\">Gettysburg College</a>"], "photo_reference": "CmRaAAAAtqz6B-OFsZpmfCpCgEkUiBxMkc4Zy3jK-ZhOMgH1uINK3PN1TrIvAIDQFYX3SW_mXgzvN9hDwUeeii3JW6qudSuJnITARPthHAce-fH3FIvoC_H_W1SGNMaRTF2dcZhKEhDf2hF0ar3auWL6zoKC9u2TGhRp4cNtM4EHzZCEXszOBUnelEd7dg", "width": 2048}], "place_id": "ChIJC0FDYoisyYkRAhAi68Dzre8", "plus_code": {"compound_code": "RQP7+7P Gettysburg, Pennsylvania, USA", "global_code": "87F4RQP7+7P"}, "rating": 4.5, "reference": "ChIJC0FDYoisyYkRAhAi68Dzre8", "types": ["university", "point_of_interest", "establishment"], "user_ratings_total": 44}, {"formatted_address": "800 Linden St, Scranton, PA 18510, USA", "geometry": {"location": {"lat": 41.406904, "lng": -75.6574682}, "viewport": {"northeast": {"lat": 41.40804487989272, "lng": -75.65610672010727}, "southwest": {"lat": 41.40534522010728, "lng": -75.65880637989271}}}, "icon": "https://maps.gstatic.com/mapfiles/place_api/icons/generic_business-71.png", "id": "8a713b99f6b05a59e78f42e8af37b327f65fe8ae", "name": "The University of Scranton", "photos": [{"height": 3492, "html_attributions": ["<a href=\"https://maps.google.com/maps/contrib/105265056771720551895/photos\">June Stoyer</a>"], "photo_reference": "CmRaAAAAiiCqBA2NJ79ivkUj5OQtTvHDlHxpF_jORs_3RePw5ZF54DdzQRH2CvgYWX_RawDRuYcGOne37i93e6HV-9A8q_LL1gvT84ZAz1bfDTPQoAvNpwzUb4rRu5RRi4ddW6ZQEhDK_ulAtgUyh95PgG0s9-kqGhT6ckXK3yXA4gGJ12h1NXyAchmjWg", "width": 4656}], "place_id": "ChIJ70cbAMjfxIkRXSxz80hEI3k", "plus_code": {"compound_code": "C84V+Q2 Scranton, Pennsylvania, USA", "global_code": "87H6C84V+Q2"}, "rating": 4.4, "reference": "ChIJ70cbAMjfxIkRXSxz80hEI3k", "types": ["point_of_interest", "establishment"], "user_ratings_total": 195}, {"formatted_address": "637 College Ave, Lancaster, PA 17603, USA", "geometry": {"location": {"lat": 40.0482454, "lng": -76.3201101}, "viewport": {"northeast": {"lat": 40.04959522989272, "lng": -76.31876027010728}, "southwest": {"lat": 40.04689557010728, "lng": -76.32145992989273}}}, "icon": "https://maps.gstatic.com/mapfiles/place_api/icons/school-71.png", "id": "b8693ca69a469bf8618e7c7155fe773372dbb8bc", "name": "Franklin & Marshall College", "photos": [{"height": 3024, "html_attributions": ["<a href=\"https://maps.google.com/maps/contrib/101643665679640089044/photos\">Christopher Sauvageau</a>"], "photo_reference": "CmRaAAAA25tT_zZOZ6nabpD6J54pMOZ_bA-bIbxs4ktf6Ifv2eym_cKiGETY-F1lOh-liUOXuJYvIj_caGW0xn9L2O-uMsfHHPbU1z20eMCOouid2-BpHB9l8ldSUJy78jxzv5NHEhBOJA_EZThgZkQRy-H5J2gtGhTHPIvnW02ylpCSaa6RnD8o2NVHkQ", "width": 4032}], "place_id": "ChIJi3Mw5GEkxokRS_6TQjt113s", "plus_code": {"compound_code": "2MXH+7X Lancaster, Pennsylvania, USA", "global_code": "87G52MXH+7X"}, "rating": 4.2, "reference": "ChIJi3Mw5GEkxokRS_6TQjt113s", "types": ["university", "point_of_interest", "establishment"], "user_ratings_total": 50}, {"formatted_address": "700 S High St, West Chester, PA 19383, USA", "geometry": {"location": {"lat": 39.9518653, "lng": -75.5999933}, "viewport": {"northeast": {"lat": 39.9644333, "lng": -75.5854436}, "southwest": {"lat": 39.9228773, "lng": -75.6138736}}}, "icon": "https://maps.gstatic.com/mapfiles/place_api/icons/school-71.png", "id": "8bbca3119a7f60cee90bac98d5bab79855b37fc6", "name": "West Chester University", "photos": [{"height": 1600, "html_attributions": ["<a href=\"https://maps.google.com/maps/contrib/103576445628694409956/photos\">Matt Stephens</a>"], "photo_reference": "CmRaAAAAUmTO3TmfcHobzrB1nuDSJ7d7jDgE48bF74pXNhUXPQ_KnfjWDJMcu7-b6oi9vQ6nmR8Sbc0-c2GDmWcNk3FTYbXf62icnAMdmjtdWC7PjsZd3Nb6n8FpQg3gm5pRiUDLEhB1z5h0gHmp_lnfLuTQIrK5GhSSk7avhPS8jlq3ROYfn6Rb-pQDKA", "width": 1200}], "place_id": "ChIJBxuyYRXxxokR88T7gl6xwio", "plus_code": {"compound_code": "XC22+P2 West Chester, Pennsylvania, USA", "global_code": "87F6XC22+P2"}, "rating": 4, "reference": "ChIJBxuyYRXxxokR88T7gl6xwio", "types": ["university", "point_of_interest", "establishment"], "user_ratings_total": 98}, {"formatted_address": "28 N College St, Carlisle, PA 17013, USA", "geometry": {"location": {"lat": 40.2027214, "lng": -77.197232}, "viewport": {"northeast": {"lat": 40.20403367989272, "lng": -77.19545102010727}, "southwest": {"lat": 40.20133402010728, "lng": -77.19815067989272}}}, "icon": "https://maps.gstatic.com/mapfiles/place_api/icons/school-71.png", "id": "9e72ba76b65cb14eca73c0a4677a0fa07bc431e6", "name": "Dickinson College", "photos": [{"height": 1150, "html_attributions": ["<a href=\"https://maps.google.com/maps/contrib/110988286122683709199/photos\">A Google User</a>"], "photo_reference": "CmRaAAAA-HspnsO-CRiaww5rFJVpSSxI5aX2qtDYB67e06H7cRwb4uzApJ9pCwRPBAMlTgmGwGVDjmCnzf_ZoYNtO7DACGl6AQu_RVw48qfNmd7zk353BkjteE7hPxaNa90H56iiEhChVtp_4UoTN5nkEiJ7nVqQGhQfVYmArVHSbO1V9FJjGL2eDt0pzA", "width": 2048}], "place_id": "ChIJGX5zSyoeyYkRViBUZ1NlcwU", "plus_code": {"compound_code": "6R33+34 Carlisle, Pennsylvania, USA", "global_code": "87G46R33+34"}, "rating": 4.1, "reference": "ChIJGX5zSyoeyYkRViBUZ1NlcwU", "types": ["university", "point_of_interest", "establishment"], "user_ratings_total": 50}, {"formatted_address": "520 N Main St, Meadville, PA 16335, USA", "geometry": {"location": {"lat": 41.6492142, "lng": -80.1451479}, "viewport": {"northeast": {"lat": 41.65059522989272, "lng": -80.14389382010727}, "southwest": {"lat": 41.64789557010728, "lng": -80.14659347989272}}}, "icon": "https://maps.gstatic.com/mapfiles/place_api/icons/school-71.png", "id": "003e44a3a2d6d6d5591be644a33d35ee100e2c1d", "name": "Allegheny College", "photos": [{"height": 1200, "html_attributions": ["<a href=\"https://maps.google.com/maps/contrib/109911798714817771608/photos\">A Google User</a>"], "photo_reference": "CmRaAAAA3_hpaXetgRYph2oE3W7kA_ndbDAIFXK0c8EptQ9YxWafyjF_L091xBCyl-2K3t9vzunwZgMYNZablNJ3ubYzX88C9JLmqlBNp1Wf7uByNXGcW_o5vqG_JcZjeZGgB9cUEhAWzlPF95UXMfqELIHY_88zGhSztg-AZpzGAixgbntPIxXDKPAOWg", "width": 1800}], "place_id": "ChIJcR-143hXMogRqiAA2Nji64o", "plus_code": {"compound_code": "JVX3+MW Meadville, Pennsylvania, USA", "global_code": "86HXJVX3+MW"}, "rating": 4.4, "reference": "ChIJcR-143hXMogRqiAA2Nji64o", "types": ["university", "point_of_interest", "establishment"], "user_ratings_total": 24}, {"formatted_address": "1011 South Drive, Indiana, PA 15705, USA", "geometry": {"location": {"lat": 40.6140124, "lng": -79.16146690000001}, "viewport": {"northeast": {"lat": 40.62575415000001, "lng": -79.14779905000002}, "southwest": {"lat": 40.60135155, "lng": -79.17335524999999}}}, "icon": "https://maps.gstatic.com/mapfiles/place_api/icons/school-71.png", "id": "0b1a5ee4026b2fa849dc3459032f52205f65ca37", "name": "Indiana University of Pennsylvania", "opening_hours": {"open_now": true}, "photos": [{"height": 388, "html_attributions": ["<a href=\"https://maps.google.com/maps/contrib/112937168434307653587/photos\">Indiana University of Pennsylvania</a>"], "photo_reference": "CmRaAAAAsOcCZSEPCBiIzEDPgOJoN-r0MrbH6SpdsAUu2XWmtnTwvEgqrbWZUgWLCJIFoNcKIWluwalA6q5PJ7aPpxpk6lBoP9WDZanC6v-QM8k7WblOZLhrDVAmVsbQSs7vkE8ZEhDDk4HO9k_TqBdsnh94zIKcGhQenGPwB-P5FSKVb_resUVOb_SdKA", "width": 719}], "place_id": "ChIJUZyi8NNay4kRpJbUVvTvUp0", "plus_code": {"compound_code": "JR7Q+JC Indiana, White Township, PA, USA", "global_code": "87G2JR7Q+JC"}, "rating": 3.7, "reference": "ChIJUZyi8NNay4kRpJbUVvTvUp0", "types": ["university", "point_of_interest", "establishment"], "user_ratings_total": 143}, {"formatted_address": "One College Ave, Mechanicsburg, PA 17055, USA", "geometry": {"location": {"lat": 40.1579079, "lng": -76.9882272}, "viewport": {"northeast": {"lat": 40.15946242989272, "lng": -76.98687997010728}, "southwest": {"lat": 40.15676277010728, "lng": -76.98957962989273}}}, "icon": "https://maps.gstatic.com/mapfiles/place_api/icons/school-71.png", "id": "e8f4f8265592651e1dfd5593d859cc72aba75726", "name": "Messiah College", "photos": [{"height": 2640, "html_attributions": ["<a href=\"https://maps.google.com/maps/contrib/108959775933418924905/photos\">Messiah College</a>"], "photo_reference": "CmRaAAAAu3JwY0NdUAHMVNQoSoygDbdmdhZD8HYjGz80h6ibqzRSQt4YtjH9x437Qedhq31XtqOnLh2htxFEuco271iXWdmqS5Rd7LlviqsiOVRWKS3Qbj0UOd5UgELnuIJ640siEhC4PwAsBt41u0wXkUaADElZGhSjvfGPjjSO26H6b5fLB9-t92wb7A", "width": 3960}], "place_id": "ChIJfUgtssDoyIkR07z1SfyvpoU", "plus_code": {"compound_code": "5256+5P Mechanicsburg, Pennsylvania, USA", "global_code": "87G55256+5P"}, "rating": 4.3, "reference": "ChIJfUgtssDoyIkR07z1SfyvpoU", "types": ["university", "point_of_interest", "establishment"], "user_ratings_total": 80}, {"formatted_address": "1 Morrow Way, Slippery Rock, PA 16057, USA", "geometry": {"location": {"lat": 41.06297259999999, "lng": -80.0411535}, "viewport": {"northeast": {"lat": 41.06451847989271, "lng": -80.04007337010728}, "southwest": {"lat": 41.06181882010727, "lng": -80.04277302989271}}}, "icon": "https://maps.gstatic.com/mapfiles/place_api/icons/school-71.png", "id": "aa5db63df349783bdf8dd800d2077c70c2ddbc1d", "name": "Slippery Rock University", "opening_hours": {"open_now": true}, "photos": [{"height": 1365, "html_attributions": ["<a href=\"https://maps.google.com/maps/contrib/109930015109834463786/photos\">Slippery Rock University</a>"], "photo_reference": "CmRaAAAA3CmN7yWFHW3hp3W_Qt2acMngOEbXHrIKptASexBTHXdOU95ZeyzHdYKGbT_4oXBgy8YiFo93D-htQgW945jIFxtiHZm8LoqTUwjv9XeBztFEgVbRIFVe0SxpcnbW3m_bEhAlsn3GL9Zl2VywwK7QZNLvGhSq6IBqdqMJWXiBEU05h8zpuDohlQ", "width": 2048}], "place_id": "ChIJLS1ElfF2M4gRZmZLN-uEqGE", "plus_code": {"compound_code": "3X75+5G Slippery Rock, Pennsylvania, USA", "global_code": "86HX3X75+5G"}, "rating": 3.9, "reference": "ChIJLS1ElfF2M4gRZmZLN-uEqGE", "types": ["university", "point_of_interest", "establishment"], "user_ratings_total": 40}, {"formatted_address": "450 S Easton Rd, Glenside, PA 19038, USA", "geometry": {"location": {"lat": 40.0921765, "lng": -75.1656149}, "viewport": {"northeast": {"lat": 40.09562935, "lng": -75.16226195}, "southwest": {"lat": 40.08814355, "lng": -75.16673254999999}}}, "icon": "https://maps.gstatic.com/mapfiles/place_api/icons/school-71.png", "id": "c7456957ad85bd74f50b84585f8024516271f50c", "name": "Arcadia University", "opening_hours": {"open_now": true}, "photos": [{"height": 3615, "html_attributions": ["<a href=\"https://maps.google.com/maps/contrib/112742950200360523471/photos\">A Google User</a>"], "photo_reference": "CmRaAAAAv4SaixhckJx4IhubvoV03F-VaVz4jq8iSxrMpTSSnNp0Nc26iqyo_jLw5Sy-zlRt7aEKNIYLZhTNU6U660Hqqmj2R8i9lVhAxQpEmaxvfvDY4aSDNqa-0jw_NypHipILEhCvt5QpB3BnhPfXWWrdmSaMGhQN1tC4Otmb6hZlZZiY-9N8jLjaJA", "width": 5423}], "place_id": "ChIJsUxWxA-6xokRgpjynwxr27o", "plus_code": {"compound_code": "3RRM+VQ Glenside, Pennsylvania, USA", "global_code": "87G63RRM+VQ"}, "rating": 3.9, "reference": "ChIJsUxWxA-6xokRgpjynwxr27o", "types": ["university", "point_of_interest", "establishment"], "user_ratings_total": 68}, {"formatted_address": "5600 City Ave, Philadelphia, PA 19131, USA", "geometry": {"location": {"lat": 39.9951217, "lng": -75.23993279999999}, "viewport": {"northeast": {"lat": 39.99940895, "lng": -75.23381105}, "southwest": {"lat": 39.98961234999999, "lng": -75.24813365000001}}}, "icon": "https://maps.gstatic.com/mapfiles/place_api/icons/school-71.png", "id": "ae9b5739778712ee80bf0b8e552fc1c490057a86", "name": "Saint Joseph's University", "opening_hours": {"open_now": true}, "photos": [{"height": 934, "html_attributions": ["<a href=\"https://maps.google.com/maps/contrib/110688975330313400378/photos\">A Google User</a>"], "photo_reference": "CmRaAAAAlyKGDlYRZdbOaUCwn1swU0kqq1-DxC7DnOefdMEAYpm5sNA2AHrCcF45hfvQSPuTvvFlqcK8o3KKCTcCpC9N-DkunYorpquXNZzFpiC2KXjuye2mlUyuDukNVNiPjox9EhBP0nz944gd3yC3Hox5sIWaGhRu-G4bTpdW2BSloanFHECZB3lEFw", "width": 2400}], "place_id": "ChIJFbkQzE7HxokRbS188jUSBWs", "plus_code": {"compound_code": "XQW6+22 Philadelphia, Pennsylvania, USA", "global_code": "87F6XQW6+22"}, "rating": 3.7, "reference": "ChIJFbkQzE7HxokRbS188jUSBWs", "types": ["university", "point_of_interest", "establishment"], "user_ratings_total": 122}, {"formatted_address": "40 Dilworth Rd, Millersville, PA 17551, USA", "geometry": {"location": {"lat": 39.9987943, "lng": -76.3527392}, "viewport": {"northeast": {"lat": 40.00759514999999, "lng": -76.34871945}, "southwest": {"lat": 39.98775695, "lng": -76.36479845}}}, "icon": "https://maps.gstatic.com/mapfiles/place_api/icons/school-71.png", "id": "f2e030cd2ce85c89b11505b153ddf168a8349bba", "name": "Millersville University", "opening_hours": {"open_now": true}, "photos": [{"height": 550, "html_attributions": ["<a href=\"https://maps.google.com/maps/contrib/102827126179496841411/photos\">A Google User</a>"], "photo_reference": "CmRZAAAAnUPMTHc_ohethvVBvYtf32ZtUhCXffCSjs-G4lqfb_-i0St_2hkYDiPvfoIfECp68vtHcDnOxVIg1BGedEiKyrOiNCkHJUG9oe_AZmJtQqY_TD5gXASFlorvG18A-GeuEhBbR6lx4_K9I27nwWdqsp-6GhRqXdVTpUTxdEIxRuTSfZcDNaeo5g", "width": 550}], "place_id": "ChIJEwaLMOUlxokRkpIe0PTDP88", "plus_code": {"compound_code": "XJXW+GW Millersville, Pennsylvania, USA", "global_code": "87F5XJXW+GW"}, "rating": 3.9, "reference": "ChIJEwaLMOUlxokRkpIe0PTDP88", "types": ["university", "point_of_interest", "establishment"], "user_ratings_total": 81}, {"formatted_address": "One University Pl, Chester, PA 19013, USA", "geometry": {"location": {"lat": 39.8633562, "lng": -75.35667529999999}, "viewport": {"northeast": {"lat": 39.86592294999999, "lng": -75.35102495000001}, "southwest": {"lat": 39.85608995, "lng": -75.36316675}}}, "icon": "https://maps.gstatic.com/mapfiles/place_api/icons/school-71.png", "id": "790f1b04add13fd313b2e008b6372af174bc05d0", "name": "Widener University", "photos": [{"height": 3120, "html_attributions": ["<a href=\"https://maps.google.com/maps/contrib/110568171630187317878/photos\">Megh Shah</a>"], "photo_reference": "CmRaAAAA08Xb72hTLjpKKpss5-077kUrKyqxJrb0l3bAiVHgBBUUB4fOLmAwz-2Lv0EdJpjeaPESZsV0-2cahwf1Te4UGdAUnU32qwNrWqJoPuxB19nE4SUjltX-m87iX5mvBJ1TEhABSgg4I1J1QmsNJuNjNPiaGhTfpYLYleWXcyjm96MejLIrx9_sxQ", "width": 4160}], "place_id": "ChIJfQxuOgjoxokRAu4ODIH1-_s", "plus_code": {"compound_code": "VJ7V+88 Chester, Chester Township, PA, USA", "global_code": "87F6VJ7V+88"}, "rating": 3.9, "reference": "ChIJfQxuOgjoxokRAu4ODIH1-_s", "types": ["university", "school", "point_of_interest", "establishment"], "user_ratings_total": 49}], "status": "OK"}, "New York": {"html_attributions": [], "next_page_token": "CrQDrAEAAIsaKuK0cknWyy37Q_G3cwsbK5S38cuupGIaDtxkuZhlWNwWlgd8BvMH1Q5YD2KnxgF2HJONOCEhAHxVKw507GC_fUMMijUt_cOEf-mMNfP00by5TkUPCnkSLlJguogf6zx9UQ_3F7Zbf6m582mxmZNmHH7F7mJSgVTAsemBraPiIKJBQYSuDTHirigXSDZ_C_ihhzSecy2TuCv0n6Il1PAnbQIYKpiiaVOLEwe5RXbYeEjO78YRJ94vcQvtMaltPBmern7fkvnCysLLRwH7xBD9KEas0M52dnh0RLHmNRozAP9hq42Q0Uhspued9DfwKSrF3QY6IKuj84lWaQ2zvW3A5AOtFyM0vitq1CuTfEJLCPYsgv24sW20yQanpYRCfgeQF-BvMa1uOyikIp64dcmZdhN930puZuWzhfuQPxDvozgBvThO7TzsTncXXOK2KTCSQe_0q0dNJAVqGO4gqRt8McjnyIApo02NueJPSefau35P7jSyxXbp0BIm0vTom8DHGg7EQ9TKz1ij9iTprxWuWVrpHY_hYLBT9KBO8Lou53nIvffRngY7SBonnG_pOhIQGk7eAsgA-iDimJ4BROL19BoULVOXdQnAkN9TT4JIWHDGm252nGY", "results": [{"formatted_address": "500 W 185th St, New York, NY 10033, USA", "geometry": {"location": {"lat": 40.85067249999999, "lng": -73.9295149}, "viewport": {"northeast": {"lat": 40.8530919, "lng": -73.92727695}, "southwest": {"lat": 40.8480895, "lng": -73.93095115}}}, "icon": "https://maps.gstatic.com/mapfiles/place_api/icons/school-71.png", "id": "91a399a373a95702589e83fc3e0622ecd15b7071", "name": "Yeshiva University", "opening_hours": {"open_now": true}, "photos": [{"height": 1080, "html_attributions": ["<a href=\"https://maps.google.com/maps/contrib/115490568549902797121/photos\">A Google User</a>"], "photo_reference": "CmRaAAAAxcWGAmn3KaDOvgSEnaS_HSxUhlG-k-YlRD291zGeLY6Jsqj5F-Iv4ga_CFuf0IriZQv6xPRhdsvd704w4YMAXs25GB5q7ZsP96MUXp_EkP4DtSIiSz8bsOv2ZRWD1YenEhCEf2O9f_j_9SHXrSWvLh3-GhSOny0BjzPAA7wj7ZwVDsBbyK-Dsw", "width": 2340}], "place_id": "ChIJW3MEyRv0wokR-zchdG68drU", "plus_code": {"compound_code": "V32C+75 New York, USA", "global_code": "87G8V32C+75"}, "rating": 4.2, "reference": "ChIJW3MEyRv0wokR-zchdG68drU", "types": ["university", "point_of_interest", "establishment"], "user_ratings_total": 46}, {"formatted_address": "116th St & Broadway, New York, NY 10027, United States", "geometry": {"location": {"lat": 40.8075355, "lng": -73.9625727}, "viewport": {"northeast": {"lat": 40.80875842989273, "lng": -73.95968815}, "southwest": {"lat": 40.80605877010728, "lng": -73.96519635}}}, "icon": "https://maps.gstatic.com/mapfiles/place_api/icons/school-71.png", "id": "69d1cee980b09490504aca661e72529bfcba7a56", "name": "Columbia University", "photos": [{"height": 446, "html_attributions": ["<a href=\"https://maps.google.com/maps/contrib/104494000466617447205/photos\">Manju Gupta</a>"], "photo_reference": "CmRaAAAAlRV505MAwLeN1liCM9NITlfGMGwm9-WQ9JIFKl97pyKCjKLsppszWSF5c-vs236m1pcG-tKJ9PrLtxt0b-ZljjL4ox5cSGzIjhKHwC5Gy2RoKaHTNGAummkvjxZ6zac1EhCZbJnjvcaFTppCJiU0-XqLGhSWpAJgN6a5-rt6dYwCRZhN8cVV-A", "width": 720}], "place_id": "ChIJyQ3Tlj72wokRUCflR_kzeVc", "plus_code": {"compound_code": "R25P+2X New York, USA", "global_code": "87G8R25P+2X"}, "rating": 4.5, "reference": "ChIJyQ3Tlj72wokRUCflR_kzeVc", "types": ["university", "political", "point_of_interest", "establishment"], "user_ratings_total": 1257}, {"formatted_address": "New York, NY 10003, USA", "geometry": {"location": {"lat": 40.72951339999999, "lng": -73.9964609}, "viewport": {"northeast": {"lat": 40.73454690000001, "lng": -73.98984915}, "southwest": {"lat": 40.72399529999998, "lng": -74.00364255000001}}}, "icon": "https://maps.gstatic.com/mapfiles/place_api/icons/school-71.png", "id": "65ebf76326f6b1710b3c522fdb8db421f180d7c4", "name": "New York University", "photos": [{"height": 2976, "html_attributions": ["<a href=\"https://maps.google.com/maps/contrib/101202770849034483275/photos\">Feng Qian</a>"], "photo_reference": "CmRaAAAADOx3KAGo-_EA4Kw9Ik2dEgxwPlA-eD_SebhgClMH43l0iMQMyqeP35ma3LIkbA55KeTt3i6xsIDnIbIpeVzGpdfsdHpQ-Tcb8DzNbgcaypQ_DjF332LebMAlvdZOUbttEhDCBOisikA4Pd2XLmXTg9FMGhSBY3Uey_9MtM07n2BY6OVd7SbS7g", "width": 3968}], "place_id": "ChIJwZVT9ZpZwokRBfO1cTF0MNo", "plus_code": {"compound_code": "P2H3+RC New York, USA", "global_code": "87G8P2H3+RC"}, "rating": 4.4, "reference": "ChIJwZVT9ZpZwokRBfO1cTF0MNo", "types": ["university", "political", "point_of_interest", "establishment"], "user_ratings_total": 992}, {"formatted_address": "227 W 27th St, New York, NY 10001, USA", "geometry": {"location": {"lat": 40.7471364, "lng": -73.9948478}, "viewport": {"northeast": {"lat": 40.74826867989272, "lng": -73.99306367010728}, "southwest": {"lat": 40.74556902010728, "lng": -73.99576332989272}}}, "icon": "https://maps.gstatic.com/mapfiles/place_api/icons/school-71.png", "id": "634853e9e4d2903d4a401cd5021c40d6a938942d", "name": "Fashion Institute of Technology", "photos": [{"height": 3265, "html_attributions": ["<a href=\"https://maps.google.com/maps/contrib/110854164034814697389/photos\">Aaron Johnson</a>"], "photo_reference": "CmRaAAAAnZrCPSImZWXYWR7iwth2HUINQN3xxvAu1n_4uMgBApBz19X7EoEIHZJ-oHH2kZ7Jp0tXL76Iq4k04yR4F4x3mieqCQN3WA2rlVwraV6J9M0eMtZNxaz4B8FQisEgorIlEhD-rsyWAO5hsDvKZRiWRQpRGhQzXhGo-eUQOCEOAFbCc4yGyHEpuA", "width": 4898}], "place_id": "ChIJDdtku69ZwokRCR-v1NZxOoY", "plus_code": {"compound_code": "P2W4+V3 New York, USA", "global_code": "87G8P2W4+V3"}, "rating": 4.4, "reference": "ChIJDdtku69ZwokRCR-v1NZxOoY", "types": ["university", "point_of_interest", "establishment"], "user_ratings_total": 233}, {"formatted_address": "6 Pennyfield Ave, The Bronx, NY 10465, USA", "geometry": {"location": {"lat": 40.8091766, "lng": -73.8011369}, "viewport": {"northeast": {"lat": 40.81052232989272, "lng": -73.79986457010729}, "southwest": {"lat": 40.80782267010728, "lng": -73.80256422989274}}}, "icon": "https://maps.gstatic.com/mapfiles/place_api/icons/school-71.png", "id": "c8be365ec1fa15a9c01307ac20b18bba66014326", "name": "SUNY Maritime College", "photos": [{"height": 3024, "html_attributions": ["<a href=\"https://maps.google.com/maps/contrib/104581939314758946972/photos\">Loveis Agiven</a>"], "photo_reference": "CmRaAAAAvCzO5WukJMaQNEYntIqkYSCMICAh_wSK4dBhqvWn1ajHFx34UXVv4aoPYOHuG-w6E_ZrHYJYGqKFHyHS_ZCw-cqrZCfEgJwH8msR7oHYMCWaOGF_9YRMbXwz4fY3w0OlEhB76MNruHyRw_4M_vqLCbT4GhR4QibZz8L1Dql13150b7pjT7ZRkg", "width": 4032}], "place_id": "ChIJu2t-5v-KwokRSEfV3bZjkWM", "plus_code": {"compound_code": "R55X+MG The Bronx, New York, USA", "global_code": "87G8R55X+MG"}, "rating": 4, "reference": "ChIJu2t-5v-KwokRSEfV3bZjkWM", "types": ["university", "point_of_interest", "establishment"], "user_ratings_total": 74}, {"formatted_address": "221 E 71st St, New York, NY 10021, USA", "geometry": {"location": {"lat": 40.76874189999999, "lng": -73.9597198}, "viewport": {"northeast": {"lat": 40.76999317989272, "lng": -73.95844222010729}, "southwest": {"lat": 40.76729352010727, "lng": -73.96114187989274}}}, "icon": "https://maps.gstatic.com/mapfiles/place_api/icons/school-71.png", "id": "a948832bd0610699c6746bada41f5feaec03e115", "name": "Marymount Manhattan College", "opening_hours": {"open_now": true}, "photos": [{"height": 1597, "html_attributions": ["<a href=\"https://maps.google.com/maps/contrib/110833048994632060069/photos\">A Google User</a>"], "photo_reference": "CmRaAAAAS-IbkBFX4Z9V5bzFPNsKxPjZ1rnLQqbQU6aweshxLN0YBcL1NJW9qo5FdOvqbXJK3BM7oc8V0hfas7ISjDPtZfBbnE9SBmIoAAmXBqw3OCx1O4xSxkC-n8UwBQGqGPxiEhAsKwqxl-iyqaImj3gUCWycGhTuKG6dSBi-1bb23ehvv5ts6wjkDw", "width": 1600}], "place_id": "ChIJmfz3beRYwokR5gA3C0K2r6I", "plus_code": {"compound_code": "Q29R+F4 New York, USA", "global_code": "87G8Q29R+F4"}, "rating": 4.3, "reference": "ChIJmfz3beRYwokR5gA3C0K2r6I", "types": ["university", "point_of_interest", "establishment"], "user_ratings_total": 42}, {"formatted_address": "72 5th Ave, New York, NY 10011, USA", "geometry": {"location": {"lat": 40.7355074, "lng": -73.9942686}, "viewport": {"northeast": {"lat": 40.73681487989272, "lng": -73.99281432010727}, "southwest": {"lat": 40.73411522010728, "lng": -73.9955139798927}}}, "icon": "https://maps.gstatic.com/mapfiles/place_api/icons/school-71.png", "id": "153be9375241acaf188a47a341932d38cead26d7", "name": "The New School Welcome Center", "photos": [{"height": 4320, "html_attributions": ["<a href=\"https://maps.google.com/maps/contrib/114991968318725305861/photos\">Chris Buchanan</a>"], "photo_reference": "CmRaAAAA3Bco3c5_Neeo8kefTiNVkgpNewtbilY4T-iQ4oq3notoLd7PY3s56tgbxccsdTHVkbLqNJXwO0AxgwSv-_Ffm9zswSm-l4a3W6a4BhsDXiXMKG1l8ff8kIa5xC75DehPEhDu33L2x1m7_RvA17wGTE2KGhS59Z6j6mNWWQdbe4cXjrVt95Dw7w", "width": 2432}], "place_id": "ChIJi52GIZhZwokRcs4fUO8yM4Y", "plus_code": {"compound_code": "P2P4+67 New York, USA", "global_code": "87G8P2P4+67"}, "rating": 3.9, "reference": "ChIJi52GIZhZwokRcs4fUO8yM4Y", "types": ["university", "point_of_interest", "establishment"], "user_ratings_total": 69}, {"formatted_address": "1 Pace Plaza, New York, NY 10038, USA", "geometry": {"location": {"lat": 40.7111197, "lng": -74.00485669999999}, "viewport": {"northeast": {"lat": 40.71278044999999, "lng": -74.00317555},